$GPGSV,3,2,11,27,08,184,28,28,48,077,24,29,24,053,17,31,71,023,,0*66
$GPGSV,3,3,11,32,19,148,37,194,61,116,33,199,43,164,33,0*5D
$BDGSV,3,1,12,01,35,141,38,03,,,33,04,,,32,07,24,180,28,0*79
$BDGSV,3,2,12,08,16,203,26,10,14,190,30,13,22,214,31,20,43,198,36,0*74
$BDGSV,3,3,12,27,13,130,40,38,07,192,30,40,22,166,34,59,38,146,39,0*7F
$GNRMC,012640.000,A,3957.52225,N,11621.00705,E,0.00,0.00,190126,,,A,V*0B
$GNVTG,0.00,T,,M,0.00,N,0.00,K,A*23
$GNZDA,012640.000,19,01,2026,00,00*46
$GPTXT,01,01,01,ANTENNA OK*35
$GNGGA,012641.000,3957.52222,N,11621.00706,E,1,16,1.7,69.4,M,-9.9,M,,*6C
$GNGLL,3957.52222,N,11621.00706,E,012641.000,A,A*4E
$GNGSA,A,3,16,27,28,32,194,199,,,,,,,2.4,1.7,1.7,1*33
$GNGSA,A,3,01,07,08,10,13,20,27,38,40,59,,,2.4,1.7,1.7,4*3B
$GPGSV,3,1,11,03,28,269,,04,30,314,,16,50,228,36,26,86,314,28,0*6B
$GPGSV,3,2,11,27,08,184,28,28,48,077,24,29,24,053,17,31,71,023,,0*66
$GPGSV,3,3,11,32,19,148,36,194,61,116,33,199,43,164,33,0*5C
$BDGSV,3,1,12,01,35,141,38,03,,,33,04,,,32,07,24,180,28,0*79
$BDGSV,3,2,12,08,16,203,26,10,14,190,30,13,22,214,31,20,43,198,36,0*74
$BDGSV,3,3,12,27,13,130,40,38,07,192,30,40,22,166,34,59,38,146,39,0*7F
$GNRMC,012641.000,A,3957.52222,N,11621.00706,E,0.00,0.00,190126,,,A,V*0E
$GNVTG,0.00,T,,M,0.00,N,0.00,K,A*23
$GNZDA,012641.000,19,01,2026,00,00*47
$GPTXT,01,01,01,ANTENNA OK*35
$GNGGA,012642.000,3957.52220,N,11621.00708,E,1,16,1.7,69.4,M,-9.9,M,,*63
$GNGLL,3957.52220,N,11621.00708,E,012642.000,A,A*41
$GNGSA,A,3,16,27,28,32,194,199,,,,,,,2.4,1.7,1.7,1*33
$GNGSA,A,3,01,07,08,10,13,20,27,38,40,59,,,2.4,1.7,1.7,4*3B
$GPGSV,3,1,11,03,28,269,,04,31,314,,16,50,228,36,26,86,314,28,0*6A
$GPGSV,3,2,11,27,08,183,28,28,48,077,24,29,24,053,19,31,71,023,,0*6F
$GPGSV,3,3,11,32,19,148,36,194,61,116,33,199,43,164,33,0*5C
$BDGSV,3,1,12,01,35,141,38,03,,,33,04,,,32,07,24,180,28,0*79
$BDGSV,3,2,12,08,16,203,26,10,14,190,31,13,22,214,30,20,43,198,36,0*74
$BDGSV,3,3,12,27,13,130,40,38,07,192,30,40,22,166,34,59,38,146,39,0*7F
$GNRMC,012642.000,A,3957.52220,N,11621.00708,E,0.00,0.00,190126,,,A,V*01
$GNVTG,0.00,T,,M,0.00,N,0.00,K,A*23
$GNZDA,012642.000,19,01,2026,00,00*44
$GPTXT,01,01,01,ANTENNA OK*35
$GNGGA,012643.000,3957.52220,N,11621.00709,E,1,16,1.7,69.5,M,-9.9,M,,*62
$GNGLL,3957.52220,N,11621.00709,E,012643.000,A,A*41
$GNGSA,A,3,16,27,28,32,194,199,,,,,,,2.4,1.7,1.7,1*33
$GNGSA,A,3,01,07,08,10,13,20,27,38,40,59,,,2.4,1.7,1.7,4*3B
$GPGSV,3,1,11,03,28,269,,04,31,314,,16,50,228,36,26,86,314,28,0*6A
$GPGSV,3,2,11,27,08,183,28,28,48,077,24,29,24,053,19,31,71,023,,0*6F
$GPGSV,3,3,11,32,19,148,35,194,61,116,33,199,43,164,33,0*5F
$BDGSV,3,1,12,01,35,141,38,03,,,33,04,,,32,07,24,180,28,0*79
$BDGSV,3,2,12,08,16,203,26,10,14,190,31,13,22,214,30,20,43,198,35,0*77
$BDGSV,3,3,12,27,13,130,40,38,07,192,30,40,22,166,34,59,38,146,39,0*7F
$GNRMC,012643.000,A,3957.52220,N,11621.00709,E,0.00,0.00,190126,,,A,V*01
$GNVTG,0.00,T,,M,0.00,N,0.00,K,A*23
$GNZDA,012643.000,19,01,2026,00,00*45
$GPTXT,01,01,01,ANTENNA OK*35
$GNGGA,012644.000,3957.52218,N,11621.00711,E,1,16,1.7,69.6,M,-9.9,M,,*64
$GNGLL,3957.52218,N,11621.00711,E,012644.000,A,A*44
$GNGSA,A,3,16,27,28,32,194,199,,,,,,,2.4,1.7,1.7,1*33
$GNGSA,A,3,01,07,08,10,13,20,27,38,40,59,,,2.4,1.7,1.7,4*3B
$GPGSV,3,1,11,03,28,269,,04,31,314,,16,50,228,36,26,86,314,27,0*65
$GPGSV,3,2,11,27,08,183,28,28,48,077,24,29,24,053,19,31,71,023,,0*6F
$GPGSV,3,3,11,32,19,148,35,194,61,116,32,199,43,164,33,0*5E
$BDGSV,3,1,12,01,35,141,38,03,,,33,04,,,32,07,24,180,28,0*79
$BDGSV,3,2,12,08,16,203,26,10,14,190,31,13,22,214,31,20,43,198,35,0*76
$BDGSV,3,3,12,27,13,130,40,38,07,192,30,40,22,166,34,59,38,146,39,0*7F
$GNRMC,012644.000,A,3957.52218,N,11621.00711,E,0.00,0.00,190126,,,A,V*04
$GNVTG,0.00,T,,M,0.00,N,0.00,K,A*23
$GNZDA,012644.000,19,01,2026,00,00*42
$GPTXT,01,01,01,ANTENNA OK*35
$GNGGA,012645.000,3957.52215,N,11621.00712,E,1,16,1.7,69.6,M,-9.9,M,,*6B
$GNGLL,3957.52215,N,11621.00712,E,012645.000,A,A*4B
$GNGSA,A,3,16,27,28,32,194,199,,,,,,,2.4,1.7,1.7,1*33
$GNGSA,A,3,01,07,08,10,13,20,27,38,40,59,,,2.4,1.7,1.7,4*3B
$GPGSV,3,1,11,03,28,269,,04,31,314,,16,50,228,36,26,86,314,27,0*65
$GPGSV,3,2,11,27,08,183,28,28,48,077,24,29,24,053,19,31,71,023,,0*6F
$GPGSV,3,3,11,32,19,148,34,194,61,116,32,199,43,164,33,0*5F
$BDGSV,3,1,12,01,35,141,38,03,,,33,04,,,32,07,24,180,28,0*79
$BDGSV,3,2,12,08,16,203,26,10,14,190,31,13,22,214,31,20,43,198,35,0*76
$BDGSV,3,3,12,27,13,130,40,38,07,192,30,40,22,166,34,59,38,146,39,0*7F
$GNRMC,012645.000,A,3957.52215,N,11621.00712,E,0.00,0.00,190126,,,A,V*0B
$GNVTG,0.00,T,,M,0.00,N,0.00,K,A*23
$GNZDA,012645.000,19,01,2026,00,00*43
$GPTXT,01,01,01,ANTENNA OK*35
$GNGGA,012646.000,3957.52212,N,11621.00714,E,1,16,1.7,69.7,M,-9.9,M,,*68
$GNGLL,3957.52212,N,11621.00714,E,012646.000,A,A*49
$GNGSA,A,3,16,27,28,32,194,199,,,,,,,2.4,1.7,1.7,1*33
$GNGSA,A,3,01,07,08,10,13,20,27,38,40,59,,,2.4,1.7,1.7,4*3B
$GPGSV,3,1,11,03,28,269,,04,31,314,,16,50,228,36,26,86,314,27,0*65
$GPGSV,3,2,11,27,08,183,28,28,48,077,24,29,24,053,19,31,71,023,,0*6F
$GPGSV,3,3,11,32,19,148,34,194,61,116,32,199,43,164,33,0*5F
$BDGSV,3,1,12,01,35,141,38,03,,,33,04,,,32,07,24,180,28,0*79
$BDGSV,3,2,12,08,16,203,26,10,14,190,31,13,22,214,31,20,43,198,35,0*76
$BDGSV,3,3,12,27,13,130,40,38,07,192,30,40,22,166,34,59,38,146,39,0*7F
$GNRMC,012646.000,A,3957.52212,N,11621.00714,E,0.00,0.00,190126,,,A,V*09
$GNVTG,0.00,T,,M,0.00,N,0.00,K,A*23
$GNZDA,012646.000,19,01,2026,00,00*40
$GPTXT,01,01,01,ANTENNA OK*35
$GNGGA,012647.000,3957.52209,N,11621.00717,E,1,16,1.7,69.8,M,-9.9,M,,*6F
$GNGLL,3957.52209,N,11621.00717,E,012647.000,A,A*41
$GNGSA,A,3,16,27,28,32,194,199,,,,,,,2.4,1.7,1.7,1*33
$GNGSA,A,3,01,07,08,10,13,20,27,38,40,59,,,2.4,1.7,1.7,4*3B
$GPGSV,3,1,11,03,28,269,,04,31,314,,16,50,228,36,26,86,314,27,0*65
$GPGSV,3,2,11,27,08,183,28,28,48,077,22,29,24,053,19,31,71,023,,0*69
$GPGSV,3,3,11,32,19,148,34,194,61,116,32,199,43,164,33,0*5F
$BDGSV,3,1,12,01,35,141,38,03,,,33,04,,,32,07,24,180,28,0*79
$BDGSV,3,2,12,08,16,203,26,10,14,190,31,13,22,214,31,20,43,198,34,0*77
$BDGSV,3,3,12,27,13,130,40,38,07,192,30,40,22,166,34,59,38,146,39,0*7F
$GNRMC,012647.000,A,3957.52209,N,11621.00717,E,0.00,0.00,190126,,,A,V*01
$GNVTG,0.00,T,,M,0.00,N,0.00,K,A*23
$GNZDA,012647.000,19,01,2026,00,00*41
$GPTXT,01,01,01,ANTENNA OK*35
$GNGGA,012648.000,3957.52205,N,11621.00719,E,1,16,1.7,69.9,M,-9.9,M,,*63
$GNGLL,3957.52205,N,11621.00719,E,012648.000,A,A*4C
$GNGSA,A,3,16,27,28,32,194,199,,,,,,,2.4,1.7,1.7,1*33
$GNGSA,A,3,01,07,08,10,13,20,27,38,40,59,,,2.4,1.7,1.7,4*3B
$GPGSV,3,1,11,03,28,269,,04,31,314,,16,50,228,36,26,86,314,25,0*67
$GPGSV,3,2,11,27,08,183,28,28,48,077,22,29,24,053,19,31,71,023,23,0*68
$GPGSV,3,3,11,32,19,148,34,194,61,116,32,199,43,164,33,0*5F
$BDGSV,3,1,12,01,35,141,38,03,,,33,04,,,32,07,24,180,28,0*79
$BDGSV,3,2,12,08,16,203,26,10,14,190,31,13,22,214,31,20,43,198,34,0*77
$BDGSV,3,3,12,27,13,130,40,38,07,192,29,40,22,166,34,59,38,146,39,0*77
$GNRMC,012648.000,A,3957.52205,N,11621.00719,E,0.00,0.00,190126,,,A,V*0C
$GNVTG,0.00,T,,M,0.00,N,0.00,K,A*23
$GNZDA,012648.000,19,01,2026,00,00*4E
$GPTXT,01,01,01,ANTENNA OK*35
$GNGGA,012649.000,3957.52202,N,11621.00722,E,1,16,1.7,70.0,M,-9.9,M,,*6C
$GNGLL,3957.52202,N,11621.00722,E,012649.000,A,A*42
$GNGSA,A,3,16,27,28,32,194,199,,,,,,,2.4,1.7,1.7,1*33
$GNGSA,A,3,01,07,08,10,13,20,27,38,40,59,,,2.4,1.7,1.7,4*3B
$GPGSV,3,1,11,03,28,269,,04,31,314,,16,50,228,36,26,86,314,25,0*67
$GPGSV,3,2,11,27,08,183,28,28,48,077,22,29,24,053,19,31,71,023,23,0*68
$GPGSV,3,3,11,32,19,148,34,194,61,116,32,199,43,164,33,0*5F
$BDGSV,3,1,12,01,35,141,38,03,,,33,04,,,32,07,24,180,28,0*79
$BDGSV,3,2,12,08,16,203,26,10,14,190,31,13,22,214,31,20,43,198,34,0*77
$BDGSV,3,3,12,27,13,130,40,38,07,192,29,40,22,166,34,59,38,146,39,0*77
$GNRMC,012649.000,A,3957.52202,N,11621.00722,E,0.00,0.00,190126,,,A,V*02
$GNVTG,0.00,T,,M,0.00,N,0.00,K,A*23
$GNZDA,012649.000,19,01,2026,00,00*4F
$GPTXT,01,01,01,ANTENNA OK*35
$GNGGA,012650.000,3957.52198,N,11621.00724,E,1,16,1.7,70.2,M,-9.9,M,,*60
$GNGLL,3957.52198,N,11621.00724,E,012650.000,A,A*4C
$GNGSA,A,3,16,27,28,32,194,199,,,,,,,2.4,1.7,1.7,1*33
$GNGSA,A,3,01,07,08,10,13,20,27,38,40,59,,,2.4,1.7,1.7,4*3B
$GPGSV,3,1,11,03,28,269,,04,31,314,,16,50,228,36,26,86,314,25,0*67
$GPGSV,3,2,11,27,08,183,28,28,48,077,13,29,24,053,19,31,71,023,25,0*6C
$GPGSV,3,3,11,32,19,148,34,194,61,116,32,199,43,164,33,0*5F
$BDGSV,3,1,12,01,35,141,38,03,,,33,04,,,32,07,24,180,28,0*79
$BDGSV,3,2,12,08,16,203,26,10,14,190,30,13,22,214,31,20,43,198,34,0*76
$BDGSV,3,3,12,27,13,130,40,38,07,192,29,40,22,166,34,59,38,146,39,0*77
$GNRMC,012650.000,A,3957.52198,N,11621.00724,E,0.00,0.00,190126,,,A,V*0C
$GNVTG,0.00,T,,M,0.00,N,0.00,K,A*23
$GNZDA,012650.000,19,01,2026,00,00*47
$GPTXT,01,01,01,ANTENNA OK*35
$GNGGA,012651.000,3957.52193,N,11621.00727,E,1,16,1.7,70.3,M,-9.9,M,,*68
$GNGLL,3957.52193,N,11621.00727,E,012651.000,A,A*45
$GNGSA,A,3,16,27,28,32,194,199,,,,,,,2.4,1.7,1.7,1*33
$GNGSA,A,3,01,07,08,10,13,20,27,38,40,59,,,2.4,1.7,1.7,4*3B
$GPGSV,3,1,11,03,28,269,,04,31,314,,16,50,228,34,26,86,314,21,0*61
$GPGSV,3,2,11,27,08,183,28,28,48,077,13,29,24,053,19,31,71,023,25,0*6C
$GPGSV,3,3,11,32,19,148,36,194,61,116,31,199,43,164,33,0*5E
$BDGSV,3,1,12,01,35,141,38,03,,,33,04,,,32,07,24,180,28,0*79
$BDGSV,3,2,12,08,16,203,26,10,14,190,30,13,22,214,31,20,43,198,34,0*76
$BDGSV,3,3,12,27,13,130,40,38,07,192,29,40,22,166,34,59,38,146,39,0*77
$GNRMC,012651.000,A,3957.52193,N,11621.00727,E,0.00,0.00,190126,,,A,V*05
$GNVTG,0.00,T,,M,0.00,N,0.00,K,A*23
$GNZDA,012651.000,19,01,2026,00,00*46
$GPTXT,01,01,01,ANTENNA OK*35
$GNGGA,012652.000,3957.52190,N,11621.00729,E,1,16,1.7,70.4,M,-9.9,M,,*61
$GNGLL,3957.52190,N,11621.00729,E,012652.000,A,A*4B
$GNGSA,A,3,16,27,28,32,194,199,,,,,,,2.4,1.7,1.7,1*33
$GNGSA,A,3,01,07,08,10,13,20,27,38,40,59,,,2.4,1.7,1.7,4*3B
$GPGSV,3,1,11,03,28,269,,04,31,314,25,16,50,228,34,26,86,314,21,0*66
$GPGSV,3,2,11,27,08,183,28,28,48,077,13,29,24,053,19,31,71,023,26,0*6F
$GPGSV,3,3,11,32,19,148,36,194,61,116,31,199,43,164,33,0*5E
$BDGSV,3,1,12,01,35,141,38,03,,,33,04,,,32,07,24,180,28,0*79
$BDGSV,3,2,12,08,16,203,26,10,14,190,30,13,22,214,30,20,43,198,34,0*77
$BDGSV,3,3,12,27,13,130,40,38,07,192,29,40,22,166,34,59,38,146,39,0*77
$GNRMC,012652.000,A,3957.52190,N,11621.00729,E,0.00,0.00,190126,,,A,V*0B
$GNVTG,0.00,T,,M,0.00,N,0.00,K,A*23
$GNZDA,012652.000,19,01,2026,00,00*45
$GPTXT,01,01,01,ANTENNA OK*35
$GNGGA,012653.000,3957.52186,N,11621.00731,E,1,16,1.7,70.5,M,-9.9,M,,*6F
$GNGLL,3957.52186,N,11621.00731,E,012653.000,A,A*44
