$GNGSA,A,1,,,,,,,,,,,,,25.5,25.5,25.5,1*01
$GNGSA,A,1,,,,,,,,,,,,,25.5,25.5,25.5,4*04
$GPGSV,4,1,13,01,71,128,,02,52,054,42,03,11,144,,07,36,202,,0*6C
$GPGSV,4,2,13,08,26,069,13,13,05,293,,14,50,311,22,17,32,268,31,0*65
$GPGSV,4,3,13,19,10,258,,22,34,309,33,30,47,241,,194,62,103,30,0*55
$GPGSV,4,4,13,195,59,127,,0*62
$BDGSV,1,1,02,29,67,042,36,59,35,147,,0*77
$GNRMC,074418.000,V,,,,,,,190126,,,M,V*29
$GNVTG,,,,,,,,,M*2D
$GNZDA,074418.000,19,01,2026,00,00*49
$GPTXT,01,01,01,ANTENNA OK*35
$GNGGA,074420.000,3957.58871,N,11621.08205,E,6,05,3.7,28.9,M,-9.9,M,,*6E
$GNGLL,3957.58871,N,11621.08205,E,074420.000,A,E*47
$GNGSA,A,3,02,08,22,194,,,,,,,,,5.4,3.7,4.0,1*06
$GNGSA,A,3,29,,,,,,,,,,,,5.4,3.7,4.0,4*3E
$GPGSV,4,1,13,01,71,128,,02,52,054,42,03,11,144,,07,36,202,,0*6C
$GPGSV,4,2,13,08,26,069,13,13,05,293,,14,50,311,22,17,32,268,31,0*65
$GPGSV,4,3,13,19,10,258,,22,34,309,32,30,47,241,,194,62,103,30,0*54
$GPGSV,4,4,13,195,59,127,,0*62
$BDGSV,1,1,02,29,67,042,36,59,35,147,,0*77
$GNRMC,074420.000,A,3957.58871,N,11621.08205,E,0.19,0.00,190126,,,E,V*0F
$GNVTG,0.00,T,,M,0.19,N,0.36,K,E*2A
$GNZDA,074420.000,19,01,2026,00,00*42
$GPTXT,01,01,01,ANTENNA OK*35
$GNGGA,074421.000,3957.58897,N,11621.08267,E,6,05,3.7,27.5,M,-9.9,M,,*60
$GNGLL,3957.58897,N,11621.08267,E,074421.000,A,E*4A
$GNGSA,A,3,02,08,22,194,,,,,,,,,5.4,3.7,4.0,1*06
$GNGSA,A,3,29,,,,,,,,,,,,5.4,3.7,4.0,4*3E
$GPGSV,4,1,13,01,71,128,,02,52,054,42,03,11,144,,07,36,202,,0*6C
$GPGSV,4,2,13,08,26,069,13,13,05,293,,14,50,311,22,17,32,268,31,0*65
$GPGSV,4,3,13,19,10,258,,22,34,309,29,30,47,241,,194,62,103,30,0*5E
$GPGSV,4,4,13,195,59,127,,0*62
$BDGSV,1,1,02,29,67,042,36,59,35,147,,0*77
$GNRMC,074421.000,A,3957.58897,N,11621.08267,E,0.71,0.00,190126,,,E,V*0C
$GNVTG,0.00,T,,M,0.71,N,1.31,K,E*22
$GNZDA,074421.000,19,01,2026,00,00*43
$GPTXT,01,01,01,ANTENNA OK*35
$GNGGA,074422.000,3957.58924,N,11621.08363,E,1,05,3.7,24.5,M,-9.9,M,,*6B
$GNGLL,3957.58924,N,11621.08363,E,074422.000,A,A*41
$GNGSA,A,3,02,08,22,194,,,,,,,,,5.4,3.7,4.0,1*06
$GNGSA,A,3,29,,,,,,,,,,,,5.4,3.7,4.0,4*3E
$GPGSV,4,1,13,01,71,128,,02,52,054,42,03,11,144,,07,36,202,,0*6C
$GPGSV,4,2,13,08,26,069,13,13,05,293,,14,50,311,22,17,32,268,32,0*66
$GPGSV,4,3,13,19,10,258,,22,34,309,29,30,47,241,,194,62,103,30,0*5E
$GPGSV,4,4,13,195,59,127,,0*62
$BDGSV,1,1,02,29,67,042,36,59,35,147,,0*77
$GNRMC,074422.000,A,3957.58924,N,11621.08363,E,1.74,0.00,190126,,,A,V*03
$GNVTG,0.00,T,,M,1.74,N,3.23,K,A*23
$GNZDA,074422.000,19,01,2026,00,00*40
$GPTXT,01,01,01,ANTENNA OK*35
$GNGGA,074423.000,3957.58924,N,11621.08363,E,6,05,3.7,24.5,M,-9.9,M,,*6D
$GNGLL,3957.58924,N,11621.08363,E,074423.000,A,E*44
$GNGSA,A,3,02,08,22,194,,,,,,,,,5.4,3.7,4.0,1*06
$GNGSA,A,3,29,,,,,,,,,,,,5.4,3.7,4.0,4*3E
$GPGSV,4,1,13,01,71,128,,02,52,054,41,03,11,144,,07,36,202,,0*6F
$GPGSV,4,2,13,08,26,069,13,13,05,293,,14,50,311,22,17,32,268,32,0*66
$GPGSV,4,3,13,19,10,258,,22,34,309,29,30,47,241,,194,62,103,30,0*5E
$GPGSV,4,4,13,195,59,127,,0*62
$BDGSV,1,1,02,29,67,042,36,59,35,147,,0*77
$GNRMC,074423.000,A,3957.58924,N,11621.08363,E,1.74,0.00,190126,,,E,V*06
$GNVTG,0.00,T,,M,1.74,N,3.23,K,E*27
$GNZDA,074423.000,19,01,2026,00,00*41
$GPTXT,01,01,01,ANTENNA OK*35
$GNGGA,074424.000,3957.58924,N,11621.08363,E,6,05,3.7,24.5,M,-9.9,M,,*6A
$GNGLL,3957.58924,N,11621.08363,E,074424.000,A,E*43
$GNGSA,A,3,02,08,22,194,,,,,,,,,5.4,3.7,4.0,1*06
$GNGSA,A,3,29,,,,,,,,,,,,5.4,3.7,4.0,4*3E
$GPGSV,4,1,13,01,71,128,,02,52,054,41,03,11,144,,07,36,202,,0*6F
$GPGSV,4,2,13,08,26,069,13,13,05,293,,14,50,311,22,17,32,268,33,0*67
$GPGSV,4,3,13,19,10,258,,22,34,309,30,30,47,241,,194,62,103,31,0*57
$GPGSV,4,4,13,195,59,127,,0*62
$BDGSV,1,1,02,29,67,042,36,59,35,147,,0*77
$GNRMC,074424.000,A,3957.58924,N,11621.08363,E,1.74,0.00,190126,,,E,V*01
$GNVTG,0.00,T,,M,1.74,N,3.23,K,E*27
$GNZDA,074424.000,19,01,2026,00,00*46
$GPTXT,01,01,01,ANTENNA OK*35
$GNGGA,074425.000,3957.58924,N,11621.08363,E,6,05,3.7,24.5,M,-9.9,M,,*6B
$GNGLL,3957.58924,N,11621.08363,E,074425.000,A,E*42
$GNGSA,A,3,02,08,22,194,,,,,,,,,5.4,3.7,4.0,1*06
$GNGSA,A,3,29,,,,,,,,,,,,5.4,3.7,4.0,4*3E
$GPGSV,4,1,13,01,71,128,,02,52,054,40,03,11,144,,07,36,202,,0*6E
$GPGSV,4,2,13,08,26,069,13,13,05,293,,14,50,311,23,17,32,268,33,0*66
$GPGSV,4,3,13,19,10,258,,22,34,309,30,30,47,241,,194,62,103,31,0*57
$GPGSV,4,4,13,195,59,127,,0*62
$BDGSV,1,1,02,29,67,042,36,59,35,147,,0*77
$GNRMC,074425.000,A,3957.58924,N,11621.08363,E,1.74,0.00,190126,,,E,V*00
$GNVTG,0.00,T,,M,1.74,N,3.23,K,E*27
$GNZDA,074425.000,19,01,2026,00,00*47
$GPTXT,01,01,01,ANTENNA OK*35
$GNGGA,074426.000,3957.58924,N,11621.08363,E,6,05,3.7,24.5,M,-9.9,M,,*68
$GNGLL,3957.58924,N,11621.08363,E,074426.000,A,E*41
$GNGSA,A,3,02,08,22,194,,,,,,,,,5.4,3.7,4.0,1*06
$GNGSA,A,3,29,,,,,,,,,,,,5.4,3.7,4.0,4*3E
$GPGSV,4,1,13,01,71,128,,02,52,054,40,03,11,144,,07,36,202,,0*6E
$GPGSV,4,2,13,08,26,069,13,13,05,293,,14,50,311,27,17,32,268,34,0*65
$GPGSV,4,3,13,19,10,258,,22,34,309,31,30,47,241,,194,62,103,31,0*56
$GPGSV,4,4,13,195,59,127,,0*62
$BDGSV,1,1,02,29,67,042,36,59,35,147,,0*77
$GNRMC,074426.000,A,3957.58924,N,11621.08363,E,1.74,0.00,190126,,,E,V*03
$GNVTG,0.00,T,,M,1.74,N,3.23,K,E*27
$GNZDA,074426.000,19,01,2026,00,00*44
$GPTXT,01,01,01,ANTENNA OK*35
$GNGGA,074427.000,3957.58924,N,11621.08363,E,6,05,3.7,24.5,M,-9.9,M,,*69
$GNGLL,3957.58924,N,11621.08363,E,074427.000,A,E*40
$GNGSA,A,3,02,08,22,194,,,,,,,,,5.4,3.7,4.0,1*06
$GNGSA,A,3,29,,,,,,,,,,,,5.4,3.7,4.0,4*3E
$GPGSV,4,1,13,01,71,128,,02,52,054,40,03,11,144,,07,36,202,,0*6E
$GPGSV,4,2,13,08,26,069,13,13,05,293,,14,50,311,27,17,32,268,34,0*65
$GPGSV,4,3,13,19,10,258,,22,35,309,31,30,47,241,,194,62,103,31,0*57
$GPGSV,4,4,13,195,59,127,,0*62
$BDGSV,1,1,02,29,67,042,36,59,35,147,,0*77
$GNRMC,074427.000,A,3957.58924,N,11621.08363,E,1.74,0.00,190126,,,E,V*02
$GNVTG,0.00,T,,M,1.74,N,3.23,K,E*27
$GNZDA,074427.000,19,01,2026,00,00*45
$GPTXT,01,01,01,ANTENNA OK*35
$GNGGA,074428.000,3957.58924,N,11621.08363,E,6,05,3.7,24.5,M,-9.9,M,,*66
$GNGLL,3957.58924,N,11621.08363,E,074428.000,A,E*4F
$GNGSA,A,3,02,08,22,194,,,,,,,,,5.4,3.7,4.0,1*06
$GNGSA,A,3,29,,,,,,,,,,,,5.4,3.7,4.0,4*3E
$GPGSV,4,1,13,01,71,128,,02,52,054,40,03,11,144,,07,36,202,,0*6E
$GPGSV,4,2,13,08,26,069,13,13,05,293,26,14,51,311,27,17,32,268,34,0*60
$GPGSV,4,3,13,19,10,258,,22,35,309,31,30,47,241,,194,62,103,32,0*54
$GPGSV,4,4,13,195,59,127,,0*62
$BDGSV,1,1,02,29,67,042,36,59,35,147,,0*77
$GNRMC,074428.000,A,3957.58924,N,11621.08363,E,1.74,0.00,190126,,,E,V*0D
$GNVTG,0.00,T,,M,1.74,N,3.23,K,E*27
$GNZDA,074428.000,19,01,2026,00,00*4A
$GPTXT,01,01,01,ANTENNA OK*35
$GNGGA,074429.000,3957.60931,N,11621.06514,E,6,05,3.0,36.9,M,-9.9,M,,*68
$GNGLL,3957.60931,N,11621.06514,E,074429.000,A,E*49
$GNGSA,A,3,02,03,22,194,,,,,,,,,4.6,3.0,3.5,1*0B
$GNGSA,A,3,29,,,,,,,,,,,,4.6,3.0,3.5,4*38
$GPGSV,4,1,13,01,71,128,,02,52,054,40,03,11,144,20,07,36,202,,0*6C
$GPGSV,4,2,13,08,26,069,13,13,05,293,26,14,51,311,27,17,32,268,33,0*67
$GPGSV,4,3,13,19,10,258,,22,35,309,31,30,47,241,,194,62,103,32,0*54
$GPGSV,4,4,13,195,59,127,,0*62
$BDGSV,1,1,02,29,67,042,36,59,35,147,,0*77
$GNRMC,074429.000,A,3957.60931,N,11621.06514,E,1.49,0.00,190126,,,E,V*05
$GNVTG,0.00,T,,M,1.49,N,2.75,K,E*2B
$GNZDA,074429.000,19,01,2026,00,00*4B
$GPTXT,01,01,01,ANTENNA OK*35
$GNGGA,074430.000,3957.60882,N,11621.06464,E,1,05,3.0,38.1,M,-9.9,M,,*6E
$GNGLL,3957.60882,N,11621.06464,E,074430.000,A,A*4A
$GNGSA,A,3,02,03,22,194,,,,,,,,,4.6,3.0,3.5,1*0B
$GNGSA,A,3,29,,,,,,,,,,,,4.6,3.0,3.5,4*38
$GPGSV,4,1,13,01,71,128,,02,52,054,40,03,11,144,20,07,36,202,,0*6C
$GPGSV,4,2,13,08,26,069,13,13,05,293,26,14,51,311,28,17,32,268,33,0*68
$GPGSV,4,3,13,19,10,258,,22,35,309,32,30,47,241,,194,62,103,32,0*57
$GPGSV,4,4,13,195,59,127,,0*62
$BDGSV,1,1,02,29,67,042,36,59,35,147,,0*77
$GNRMC,074430.000,A,3957.60882,N,11621.06464,E,0.31,0.00,190126,,,A,V*08
$GNVTG,0.00,T,,M,0.31,N,0.57,K,A*23
$GNZDA,074430.000,19,01,2026,00,00*43
$GPTXT,01,01,01,ANTENNA OK*35
$GNGGA,074431.000,3957.60847,N,11621.06371,E,1,07,1.3,36.8,M,-9.9,M,,*61
$GNGLL,3957.60847,N,11621.06371,E,074431.000,A,A*41
$GNGSA,A,3,02,03,08,17,22,194,,,,,,,2.5,1.3,2.1,1*04
$GNGSA,A,3,29,,,,,,,,,,,,2.5,1.3,2.1,4*39
$GPGSV,4,1,13,01,71,128,,02,52,054,38,03,11,144,20,07,36,202,,0*63
$GPGSV,4,2,13,08,26,069,25,13,05,293,27,14,51,311,34,17,32,268,34,0*66
$GPGSV,4,3,13,19,10,258,,22,35,309,35,30,47,241,,194,62,103,32,0*50
$GPGSV,4,4,13,195,59,127,,0*62
$BDGSV,1,1,02,29,67,042,35,59,35,147,,0*74
$GNRMC,074431.000,A,3957.60847,N,11621.06371,E,0.11,0.00,190126,,,A,V*01
$GNVTG,0.00,T,,M,0.11,N,0.20,K,A*21
$GNZDA,074431.000,19,01,2026,00,00*42
$GPTXT,01,01,01,ANTENNA OK*35
$GNGGA,074432.000,3957.60898,N,11621.06326,E,1,08,1.0,36.9,M,-9.9,M,,*6F
$GNGLL,3957.60898,N,11621.06326,E,074432.000,A,A*42
$GNGSA,A,3,02,03,07,08,17,22,194,,,,,,2.2,1.0,2.0,1*06
$GNGSA,A,3,29,,,,,,,,,,,,2.2,1.0,2.0,4*3C
$GPGSV,4,1,13,01,71,128,,02,52,054,40,03,11,144,20,07,36,202,18,0*65
$GPGSV,4,2,13,08,26,069,29,13,05,293,32,14,51,311,36,17,32,268,31,0*69
$GPGSV,4,3,13,19,10,258,,22,35,309,35,30,47,241,,194,62,103,32,0*50
$GPGSV,4,4,13,195,59,127,,0*62
$BDGSV,1,1,02,29,67,042,35,59,35,147,,0*74
$GNRMC,074432.000,A,3957.60898,N,11621.06326,E,1.18,0.00,190126,,,A,V*0A
$GNVTG,0.00,T,,M,1.18,N,2.19,K,A*21
$GNZDA,074432.000,19,01,2026,00,00*41
$GPTXT,01,01,01,ANTENNA OK*35
$GNGGA,074433.000,3957.60894,N,11621.06332,E,1,08,1.0,35.2,M,-9.9,M,,*6F
$GNGLL,3957.60894,N,11621.06332,E,074433.000,A,A*4A
$GNGSA,A,3,02,03,07,08,17,22,194,,,,,,2.2,1.0,2.0,1*06
$GNGSA,A,3,29,,,,,,,,,,,,2.2,1.0,2.0,4*3C
$GPGSV,4,1,13,01,71,128,,02,52,054,42,03,11,144,20,07,36,202,18,0*67
$GPGSV,4,2,13,08,26,069,29,13,05,293,22,14,51,311,36,17,32,268,28,0*60
$GPGSV,4,3,13,19,10,258,,22,35,309,33,30,47,241,,194,62,103,34,0*50
$GPGSV,4,4,13,195,59,127,,0*62
$BDGSV,1,1,02,29,67,042,35,59,35,147,,0*74
$GNRMC,074433.000,A,3957.60894,N,11621.06332,E,0.12,0.00,190126,,,A,V*09
$GNVTG,0.00,T,,M,0.12,N,0.23,K,A*21
$GNZDA,074433.000,19,01,2026,00,00*40
$GPTXT,01,01,01,ANTENNA OK*35
$GNGGA,074434.000,3957.60933,N,11621.06333,E,1,08,1.0,34.3,M,-9.9,M,,*65
$GNGLL,3957.60933,N,11621.06333,E,074434.000,A,A*40
$GNGSA,A,3,02,03,07,08,17,22,194,,,,,,2.2,1.0,2.0,1*06
$GNGSA,A,3,29,,,,,,,,,,,,2.2,1.0,2.0,4*3C
$GPGSV,4,1,13,01,71,128,,02,52,054,40,03,11,144,20,07,36,202,18,0*65
$GPGSV,4,2,13,08,26,069,29,13,05,293,22,14,51,311,34,17,32,268,28,0*62
$GPGSV,4,3,13,19,10,259,,22,35,309,39,30,47,241,,194,62,103,34,0*5B
$GPGSV,4,4,13,195,59,127,,0*62
$BDGSV,1,1,02,29,67,042,35,59,35,147,,0*74
$GNRMC,074434.000,A,3957.60933,N,11621.06333,E,2.34,123.49,190126,,,A,V*08
$GNVTG,123.49,T,,M,2.34,N,4.34,K,A*28
$GNZDA,074434.000,19,01,2026,00,00*47
$GPTXT,01,01,01,ANTENNA OK*35
$GNGGA,074435.000,3957.60704,N,11621.05954,E,1,08,1.0,46.7,M,-9.9,M,,*67
$GNGLL,3957.60704,N,11621.05954,E,074435.000,A,A*43
$GNGSA,A,3,02,03,07,08,17,22,194,,,,,,2.2,1.0,2.0,1*06
$GNGSA,A,3,29,,,,,,,,,,,,2.2,1.0,2.0,4*3C
$GPGSV,4,1,13,01,71,128,,02,52,054,40,03,11,144,20,07,36,202,18,0*65
$GPGSV,4,2,13,08,26,069,29,13,05,293,22,14,51,311,34,17,32,268,28,0*62
$GPGSV,4,3,13,19,10,259,,22,35,309,37,30,47,241,,194,62,103,34,0*55
$GPGSV,4,4,13,195,59,127,,0*62
$BDGSV,1,1,02,29,67,042,35,59,35,147,,0*74
$GNRMC,074435.000,A,3957.60704,N,11621.05954,E,2.60,112.88,190126,,,A,V*05
$GNVTG,112.88,T,,M,2.60,N,4.82,K,A*2B
$GNZDA,074435.000,19,01,2026,00,00*46
$GPTXT,01,01,01,ANTENNA OK*35
$GNGGA,074436.000,3957.60295,N,11621.05453,E,1,09,1.0,57.5,M,-9.9,M,,*60
$GNGLL,3957.60295,N,11621.05453,E,074436.000,A,A*47
$GNGSA,A,3,01,02,03,07,08,17,22,194,,,,,1.9,1.0,1.6,1*0A
$GNGSA,A,3,29,,,,,,,,,,,,1.9,1.0,1.6,4*31
$GPGSV,4,1,13,01,71,128,21,02,52,054,40,03,11,144,20,07,36,202,18,0*66
$GPGSV,4,2,13,08,26,069,29,13,05,293,22,14,51,311,34,17,32,268,28,0*62
$GPGSV,4,3,13,19,10,259,,22,35,309,26,30,47,241,,194,62,103,35,0*54
$GPGSV,4,4,13,195,59,127,,0*62
$BDGSV,1,1,02,29,67,042,35,59,35,147,,0*74
$GNRMC,074436.000,A,3957.60295,N,11621.05453,E,1.96,136.05,190126,,,A,V*08
$GNVTG,136.05,T,,M,1.96,N,3.62,K,A*2B
$GNZDA,074436.000,19,01,2026,00,00*45
$GPTXT,01,01,01,ANTENNA OK*35
$GNGGA,074437.000,3957.60053,N,11621.05369,E,1,09,1.0,61.4,M,-9.9,M,,*63
$GNGLL,3957.60053,N,11621.05369,E,074437.000,A,A*40
$GNGSA,A,3,01,02,03,07,08,17,22,194,,,,,1.9,1.0,1.6,1*0A
$GNGSA,A,3,29,,,,,,,,,,,,1.9,1.0,1.6,4*31
$GPGSV,4,1,13,01,71,128,21,02,52,054,39,03,11,144,20,07,36,202,18,0*68
$GPGSV,4,2,13,08,26,069,28,13,05,293,22,14,51,311,33,17,32,268,28,0*64
$GPGSV,4,3,13,19,10,259,,22,35,309,29,30,47,241,,194,62,103,36,0*58
$GPGSV,4,4,13,195,59,127,,0*62
$BDGSV,1,1,02,29,67,042,36,59,35,147,,0*77
$GNRMC,074437.000,A,3957.60053,N,11621.05369,E,1.46,136.05,190126,,,A,V*02
$GNVTG,136.05,T,,M,1.46,N,2.71,K,A*25
$GNZDA,074437.000,19,01,2026,00,00*44
$GPTXT,01,01,01,ANTENNA OK*35
$GNGGA,074438.000,3957.59805,N,11621.05329,E,1,10,1.0,64.9,M,-9.9,M,,*69
$GNGLL,3957.59805,N,11621.05329,E,074438.000,A,A*4A
$GNGSA,A,3,01,02,03,07,08,17,22,194,195,,,,1.8,1.0,1.5,1*35
$GNGSA,A,3,29,,,,,,,,,,,,1.8,1.0,1.5,4*33
$GPGSV,4,1,13,01,71,128,21,02,52,054,39,03,11,144,20,07,36,202,18,0*68
$GPGSV,4,2,13,08,26,069,28,13,05,293,22,14,51,311,33,17,32,268,28,0*64
$GPGSV,4,3,13,19,10,259,,22,35,309,29,30,47,241,,194,62,103,38,0*56
$GPGSV,4,4,13,195,59,127,19,0*6A
$BDGSV,1,1,03,07,,,34,29,67,042,39,59,35,147,,0*79
$GNRMC,074438.000,A,3957.59805,N,11621.05329,E,1.20,136.05,190126,,,A,V*08
$GNVTG,136.05,T,,M,1.20,N,2.22,K,A*23
$GNZDA,074438.000,19,01,2026,00,00*4B
$GPTXT,01,01,01,ANTENNA OK*35
$GNGGA,074439.000,3957.59653,N,11621.05355,E,1,10,1.0,63.7,M,-9.9,M,,*67
$GNGLL,3957.59653,N,11621.05355,E,074439.000,A,A*4D
$GNGSA,A,3,01,02,03,07,08,17,22,194,195,,,,1.8,1.0,1.5,1*35
$GNGSA,A,3,29,,,,,,,,,,,,1.8,1.0,1.5,4*33
$GPGSV,4,1,13,01,71,128,23,02,52,054,39,03,11,144,20,07,36,202,18,0*6A
$GPGSV,4,2,13,08,26,069,25,13,05,293,22,14,51,311,31,17,32,268,28,0*6B
$GPGSV,4,3,13,19,10,259,,22,35,309,29,30,47,241,,194,62,103,38,0*56
$GPGSV,4,4,13,195,59,127,22,0*62
$BDGSV,1,1,04,07,,,34,29,67,042,38,40,,,37,59,35,147,,0*7F
$GNRMC,074439.000,A,3957.59653,N,11621.05355,E,1.00,136.05,190126,,,A,V*0D
$GNVTG,136.05,T,,M,1.00,N,1.86,K,A*2C
$GNZDA,074439.000,19,01,2026,00,00*4A
$GPTXT,01,01,01,ANTENNA OK*35
$GNGGA,074440.000,3957.59595,N,11621.05401,E,1,10,1.0,63.8,M,-9.9,M,,*69
$GNGLL,3957.59595,N,11621.05401,E,074440.000,A,A*4C
$GNGSA,A,3,01,02,03,07,08,17,22,194,195,,,,1.8,1.0,1.5,1*35
$GNGSA,A,3,29,,,,,,,,,,,,1.8,1.0,1.5,4*33
$GPGSV,4,1,13,01,71,128,23,02,52,054,38,03,11,144,19,07,36,202,18,0*61
$GPGSV,4,2,13,08,26,069,25,13,05,293,22,14,51,311,33,17,32,268,27,0*66
$GPGSV,4,3,13,19,10,259,,22,35,309,30,30,47,241,,194,62,103,38,0*5E
$GPGSV,4,4,13,195,59,127,22,0*62
$BDGSV,1,1,04,07,,,33,29,67,042,38,40,,,35,59,35,147,,0*7A
$GNRMC,074440.000,A,3957.59595,N,11621.05401,E,1.62,136.05,190126,,,A,V*08
$GNVTG,136.05,T,,M,1.62,N,3.01,K,A*25
$GNZDA,074440.000,19,01,2026,00,00*44
$GPTXT,01,01,01,ANTENNA OK*35
$GNGGA,074441.000,3957.59544,N,11621.05494,E,1,10,1.0,64.3,M,-9.9,M,,*64
$GNGLL,3957.59544,N,11621.05494,E,074441.000,A,A*4D
$GNGSA,A,3,01,02,03,07,08,17,22,194,195,,,,1.8,1.0,1.5,1*35
$GNGSA,A,3,29,,,,,,,,,,,,1.8,1.0,1.5,4*33
$GPGSV,4,1,13,01,71,128,23,02,52,054,38,03,11,144,19,07,36,202,18,0*61
$GPGSV,4,2,13,08,26,069,25,13,05,293,22,14,51,311,33,17,32,268,27,0*66
$GPGSV,4,3,13,19,10,259,,22,35,309,30,30,47,241,,194,62,103,38,0*5E
$GPGSV,4,4,13,195,59,127,22,0*62
$BDGSV,1,1,04,07,,,33,29,67,042,38,40,,,37,59,35,147,,0*78
$GNRMC,074441.000,A,3957.59544,N,11621.05494,E,2.03,103.49,190126,,,A,V*03
$GNVTG,103.49,T,,M,2.03,N,3.76,K,A*2F
$GNZDA,074441.000,19,01,2026,00,00*45
$GPTXT,01,01,01,ANTENNA OK*35
$GNGGA,074442.000,3957.59499,N,11621.05588,E,1,10,1.0,64.5,M,-9.9,M,,*6C
$GNGLL,3957.59499,N,11621.05588,E,074442.000,A,A*43
$GNGSA,A,3,01,02,03,07,08,17,22,194,195,,,,1.8,1.0,1.5,1*35
$GNGSA,A,3,29,,,,,,,,,,,,1.8,1.0,1.5,4*33
$GPGSV,4,1,13,01,71,128,23,02,52,054,38,03,11,144,19,07,36,202,18,0*61
$GPGSV,4,2,13,08,26,069,25,13,05,293,22,14,51,311,31,17,32,268,27,0*64
$GPGSV,4,3,13,19,10,259,,22,35,309,31,30,47,241,,194,62,103,36,0*51
$GPGSV,4,4,13,195,59,127,22,0*62
$BDGSV,1,1,04,07,,,33,29,67,042,37,40,,,37,59,35,147,,0*77
$GNRMC,074442.000,A,3957.59499,N,11621.05588,E,2.30,99.18,190126,,,A,V*3B
$GNVTG,99.18,T,,M,2.30,N,4.25,K,A*18
$GNZDA,074442.000,19,01,2026,00,00*46
$GPTXT,01,01,01,ANTENNA OK*35
$GNGGA,074443.000,3957.59460,N,11621.05663,E,1,10,1.0,64.5,M,-9.9,M,,*6D
$GNGLL,3957.59460,N,11621.05663,E,074443.000,A,A*42
$GNGSA,A,3,01,02,03,07,08,17,22,194,195,,,,1.8,1.0,1.5,1*35
$GNGSA,A,3,29,,,,,,,,,,,,1.8,1.0,1.5,4*33
$GPGSV,4,1,13,01,71,127,23,02,52,054,38,03,11,144,19,07,36,202,18,0*6E
$GPGSV,4,2,13,08,26,069,26,13,05,293,22,14,51,311,31,17,32,268,28,0*68
$GPGSV,4,3,13,19,10,259,,22,35,309,31,30,47,241,,194,62,103,36,0*51
$GPGSV,4,4,13,195,59,127,29,0*69
$BDGSV,1,1,04,07,,,33,29,67,042,37,40,,,37,59,35,147,,0*77
$GNRMC,074443.000,A,3957.59460,N,11621.05663,E,1.39,99.18,190126,,,A,V*30
$GNVTG,99.18,T,,M,1.39,N,2.57,K,A*11
$GNZDA,074443.000,19,01,2026,00,00*47
$GPTXT,01,01,01,ANTENNA OK*35
$GNGGA,074444.000,3957.59421,N,11621.05725,E,1,10,1.0,64.7,M,-9.9,M,,*6E
$GNGLL,3957.59421,N,11621.05725,E,074444.000,A,A*43
$GNGSA,A,3,01,02,03,07,08,17,22,194,195,,,,1.8,1.0,1.5,1*35
$GNGSA,A,3,29,,,,,,,,,,,,1.8,1.0,1.5,4*33
$GPGSV,4,1,13,01,71,127,24,02,52,054,38,03,11,144,19,07,36,202,18,0*69
$GPGSV,4,2,13,08,26,069,26,13,05,293,23,14,51,311,26,17,32,268,31,0*67
$GPGSV,4,3,13,19,10,259,,22,35,309,31,30,47,240,,194,62,103,38,0*5E
$GPGSV,4,4,13,195,59,127,29,0*69
$BDGSV,1,1,04,07,,,33,29,67,042,37,40,,,36,59,35,147,,0*76
$GNRMC,074444.000,A,3957.59421,N,11621.05725,E,1.54,99.18,190126,,,A,V*3A
$GNVTG,99.18,T,,M,1.54,N,2.85,K,A*15
$GNZDA,074444.000,19,01,2026,00,00*40
$GPTXT,01,01,01,ANTENNA OK*35
$GNGGA,074445.000,3957.59382,N,11621.05807,E,1,10,1.0,64.5,M,-9.9,M,,*6C
$GNGLL,3957.59382,N,11621.05807,E,074445.000,A,A*43
$GNGSA,A,3,01,02,03,07,08,17,22,194,195,,,,1.8,1.0,1.5,1*35
$GNGSA,A,3,29,,,,,,,,,,,,1.8,1.0,1.5,4*33
$GPGSV,4,1,13,01,71,127,27,02,52,054,38,03,11,144,19,07,36,202,18,0*6A
$GPGSV,4,2,13,08,26,069,28,13,05,293,23,14,51,311,30,17,32,268,31,0*6E
$GPGSV,4,3,13,19,10,259,,22,35,309,30,30,47,240,,194,62,103,38,0*5F
$GPGSV,4,4,13,195,59,127,29,0*69
$BDGSV,1,1,04,07,,,33,29,67,042,37,40,,,36,59,35,147,,0*76
$GNRMC,074445.000,A,3957.59382,N,11621.05807,E,2.15,102.69,190126,,,A,V*09
$GNVTG,102.69,T,,M,2.15,N,3.98,K,A*2B
$GNZDA,074445.000,19,01,2026,00,00*41
$GPTXT,01,01,01,ANTENNA OK*35
$GNGGA,074446.000,3957.59373,N,11621.05904,E,1,10,1.0,64.0,M,-9.9,M,,*66
$GNGLL,3957.59373,N,11621.05904,E,074446.000,A,A*4C
$GNGSA,A,3,01,02,03,07,08,17,22,194,195,,,,1.8,1.0,1.5,1*35
$GNGSA,A,3,29,,,,,,,,,,,,1.8,1.0,1.5,4*33
$GPGSV,4,1,13,01,71,127,31,02,52,054,40,03,11,144,19,07,36,202,18,0*62
$GPGSV,4,2,13,08,26,069,28,13,05,293,23,14,51,311,33,17,32,268,31,0*6D
$GPGSV,4,3,13,19,10,259,,22,35,309,26,30,47,240,,194,62,103,38,0*58
$GPGSV,4,4,13,195,60,127,31,0*6A
$BDGSV,1,1,04,07,,,33,29,67,042,37,40,,,36,59,35,147,,0*76
$GNRMC,074446.000,A,3957.59373,N,11621.05904,E,2.74,83.51,190126,,,A,V*32
$GNVTG,83.51,T,,M,2.74,N,5.07,K,A*1F
$GNZDA,074446.000,19,01,2026,00,00*42
$GPTXT,01,01,01,ANTENNA OK*35
$GNGGA,074447.000,3957.59344,N,11621.05987,E,1,10,1.0,64.0,M,-9.9,M,,*68
$GNGLL,3957.59344,N,11621.05987,E,074447.000,A,A*42
$GNGSA,A,3,01,02,03,07,08,17,22,194,195,,,,1.8,1.0,1.5,1*35
$GNGSA,A,3,29,,,,,,,,,,,,1.8,1.0,1.5,4*33
$GPGSV,4,1,13,01,71,127,37,02,52,054,39,03,11,144,19,07,36,202,18,0*6A
$GPGSV,4,2,13,08,26,069,28,13,05,293,23,14,51,311,33,17,32,268,30,0*6C
$GPGSV,4,3,13,19,10,259,,22,35,309,26,30,47,240,,194,62,103,38,0*58
$GPGSV,4,4,13,195,60,127,36,0*6D
$BDGSV,1,1,04,07,,,33,29,67,042,38,40,,,36,59,35,147,,0*79
$GNRMC,074447.000,A,3957.59344,N,11621.05987,E,1.98,105.12,190126,,,A,V*05
$GNVTG,105.12,T,,M,1.98,N,3.66,K,A*27
$GNZDA,074447.000,19,01,2026,00,00*43
$GPTXT,01,01,01,ANTENNA OK*35
$GNGGA,074448.000,3957.59328,N,11621.06052,E,1,10,1.0,63.4,M,-9.9,M,,*6C
$GNGLL,3957.59328,N,11621.06052,E,074448.000,A,A*45
$GNGSA,A,3,01,02,03,07,08,17,22,194,195,,,,1.8,1.0,1.5,1*35
$GNGSA,A,3,29,,,,,,,,,,,,1.8,1.0,1.5,4*33
$GPGSV,4,1,13,01,71,127,37,02,52,054,39,03,11,144,19,07,36,202,18,0*6A
$GPGSV,4,2,13,08,26,069,28,13,05,293,23,14,51,311,33,17,32,268,30,0*6C
$GPGSV,4,3,13,19,10,259,,22,35,309,28,30,47,240,,194,62,103,38,0*56
$GPGSV,4,4,13,195,60,127,36,0*6D
$BDGSV,1,1,04,07,,,33,29,67,042,38,40,,,36,59,35,147,,0*79
$GNRMC,074448.000,A,3957.59328,N,11621.06052,E,1.28,105.12,190126,,,A,V*09
$GNVTG,105.12,T,,M,1.28,N,2.37,K,A*29
$GNZDA,074448.000,19,01,2026,00,00*4C
$GPTXT,01,01,01,ANTENNA OK*35
$GNGGA,074449.000,3957.59292,N,11621.06116,E,1,10,1.0,63.8,M,-9.9,M,,*60
$GNGLL,3957.59292,N,11621.06116,E,074449.000,A,A*45
$GNGSA,A,3,01,02,03,07,08,17,22,194,195,,,,1.8,1.0,1.5,1*35
$GNGSA,A,3,29,,,,,,,,,,,,1.8,1.0,1.5,4*33
$GPGSV,4,1,13,01,71,127,37,02,52,054,39,03,11,144,19,07,36,202,20,0*61
$GPGSV,4,2,13,08,26,069,28,13,05,293,24,14,51,311,34,17,32,268,28,0*65
$GPGSV,4,3,13,19,10,259,,22,35,309,28,30,47,240,,194,62,103,38,0*56
$GPGSV,4,4,13,195,60,127,37,0*6C
$BDGSV,1,1,04,07,,,33,29,67,042,38,40,,,35,59,35,147,,0*7A
$GNRMC,074449.000,A,3957.59292,N,11621.06116,E,1.39,105.12,190126,,,A,V*09
$GNVTG,105.12,T,,M,1.39,N,2.58,K,A*20
$GNZDA,074449.000,19,01,2026,00,00*4D
$GPTXT,01,01,01,ANTENNA OK*35
$GNGGA,074450.000,3957.59272,N,11621.06162,E,1,10,1.0,63.2,M,-9.9,M,,*6F
$GNGLL,3957.59272,N,11621.06162,E,074450.000,A,A*40
$GNGSA,A,3,01,02,03,07,08,17,22,194,195,,,,1.8,1.0,1.5,1*35
$GNGSA,A,3,29,,,,,,,,,,,,1.8,1.0,1.5,4*33
$GPGSV,4,1,13,01,71,127,36,02,52,054,38,03,11,144,19,07,36,202,20,0*61
$GPGSV,4,2,13,08,26,069,27,13,05,293,24,14,51,311,30,17,32,268,31,0*66
$GPGSV,4,3,13,19,10,259,,22,35,309,28,30,47,240,,194,62,103,37,0*59
$GPGSV,4,4,13,195,60,127,35,0*6E
$BDGSV,1,1,04,07,,,33,29,67,042,38,40,,,35,59,35,147,,0*7A
$GNRMC,074450.000,A,3957.59272,N,11621.06162,E,0.96,105.12,190126,,,A,V*08
$GNVTG,105.12,T,,M,0.96,N,1.78,K,A*25
$GNZDA,074450.000,19,01,2026,00,00*45
$GPTXT,01,01,01,ANTENNA OK*35
$GNGGA,074451.000,3957.59234,N,11621.06203,E,1,11,0.9,63.0,M,-9.9,M,,*63
$GNGLL,3957.59234,N,11621.06203,E,074451.000,A,A*47
$GNGSA,A,3,01,02,03,07,08,17,22,194,195,,,,1.7,0.9,1.4,1*33
$GNGSA,A,3,29,59,,,,,,,,,,,1.7,0.9,1.4,4*39
$GPGSV,4,1,13,01,71,127,36,02,52,054,40,03,11,144,20,07,36,202,20,0*64
$GPGSV,4,2,13,08,26,069,27,13,05,293,26,14,51,311,34,17,32,268,33,0*62
$GPGSV,4,3,13,19,10,259,,22,35,309,28,30,47,240,,194,62,103,37,0*59
$GPGSV,4,4,13,195,60,127,35,0*6E
$BDGSV,1,1,04,07,,,34,29,67,042,38,40,,,37,59,35,147,25,0*78
$GNRMC,074451.000,A,3957.59234,N,11621.06203,E,1.15,105.12,190126,,,A,V*05
$GNVTG,105.12,T,,M,1.15,N,2.13,K,A*21
$GNZDA,074451.000,19,01,2026,00,00*44
$GPTXT,01,01,01,ANTENNA OK*35
$GNGGA,074452.000,3957.59187,N,11621.06262,E,1,11,0.9,63.5,M,-9.9,M,,*69
$GNGLL,3957.59187,N,11621.06262,E,074452.000,A,A*48
$GNGSA,A,3,01,02,03,07,08,17,22,194,195,,,,1.7,0.9,1.4,1*33
$GNGSA,A,3,29,59,,,,,,,,,,,1.7,0.9,1.4,4*39
$GPGSV,4,1,13,01,71,127,37,02,52,054,39,03,11,144,20,07,36,202,20,0*6B
$GPGSV,4,2,13,08,26,069,23,13,05,293,26,14,51,311,36,17,32,268,33,0*64
$GPGSV,4,3,13,19,10,259,,22,35,309,28,30,47,240,,194,62,103,37,0*59
$GPGSV,4,4,13,195,60,127,36,0*6D
$BDGSV,1,1,04,07,,,34,29,67,042,38,40,,,37,59,35,147,25,0*78
$GNRMC,074452.000,A,3957.59187,N,11621.06262,E,1.20,105.12,190126,,,A,V*0C
$GNVTG,105.12,T,,M,1.20,N,2.21,K,A*26
$GNZDA,074452.000,19,01,2026,00,00*47
$GPTXT,01,01,01,ANTENNA OK*35
$GNGGA,074453.000,3957.59165,N,11621.06270,E,1,11,0.9,64.1,M,-9.9,M,,*64
$GNGLL,3957.59165,N,11621.06270,E,074453.000,A,A*46
$GNGSA,A,3,01,02,03,07,08,17,22,194,195,,,,1.7,0.9,1.4,1*33
$GNGSA,A,3,29,59,,,,,,,,,,,1.7,0.9,1.4,4*39
$GPGSV,4,1,13,01,71,127,37,02,52,054,37,03,11,144,20,07,36,202,20,0*65
$GPGSV,4,2,13,08,26,069,23,13,05,293,26,14,51,311,38,17,32,268,33,0*6A
$GPGSV,4,3,13,19,10,259,,22,35,309,28,30,47,240,,194,62,103,36,0*58
$GPGSV,4,4,13,195,60,127,32,0*69
$BDGSV,1,1,04,07,,,32,29,67,042,38,40,,,37,59,35,147,25,0*7E
$GNRMC,074453.000,A,3957.59165,N,11621.06270,E,0.00,105.12,190126,,,A,V*01
$GNVTG,105.12,T,,M,0.00,N,0.00,K,A*24
$GNZDA,074453.000,19,01,2026,00,00*46
$GPTXT,01,01,01,ANTENNA OK*35
$GNGGA,074454.000,3957.59123,N,11621.06284,E,1,11,0.9,65.1,M,-9.9,M,,*6B
$GNGLL,3957.59123,N,11621.06284,E,074454.000,A,A*48
$GNGSA,A,3,01,02,03,07,08,17,22,194,195,,,,1.7,0.9,1.4,1*33
$GNGSA,A,3,29,59,,,,,,,,,,,1.7,0.9,1.4,4*39
$GPGSV,4,1,13,01,71,127,38,02,52,054,37,03,11,144,20,07,36,202,20,0*6A
$GPGSV,4,2,13,08,26,069,23,13,05,293,23,14,51,311,38,17,32,268,34,0*68
$GPGSV,4,3,13,19,10,259,,22,35,309,29,30,47,240,,194,62,103,36,0*59
$GPGSV,4,4,13,195,60,127,38,0*63
$BDGSV,1,1,04,07,,,34,29,67,042,36,40,,,36,59,35,147,25,0*77
$GNRMC,074454.000,A,3957.59123,N,11621.06284,E,0.00,105.12,190126,,,A,V*0F
$GNVTG,105.12,T,,M,0.00,N,0.00,K,A*24
$GNZDA,074454.000,19,01,2026,00,00*41
$GPTXT,01,01,01,ANTENNA OK*35
$GNGGA,074455.000,3957.59101,N,11621.06282,E,1,11,0.9,66.0,M,-9.9,M,,*6E
$GNGLL,3957.59101,N,11621.06282,E,074455.000,A,A*4F
$GNGSA,A,3,01,02,03,07,08,17,22,194,195,,,,1.7,0.9,1.4,1*33
$GNGSA,A,3,29,59,,,,,,,,,,,1.7,0.9,1.4,4*39
$GPGSV,4,1,13,01,71,127,39,02,52,054,37,03,11,144,22,07,36,202,20,0*69
$GPGSV,4,2,13,08,26,069,23,13,05,293,23,14,51,311,38,17,32,268,38,0*64
$GPGSV,4,3,13,19,10,259,,22,35,309,38,30,47,240,,194,62,103,36,0*59
$GPGSV,4,4,13,195,60,127,38,0*63
$BDGSV,1,1,04,07,,,34,29,67,042,34,40,,,36,59,35,147,30,0*71
$GNRMC,074455.000,A,3957.59101,N,11621.06282,E,0.00,105.12,190126,,,A,V*08
$GNVTG,105.12,T,,M,0.00,N,0.00,K,A*24
$GNZDA,074455.000,19,01,2026,00,00*40
$GPTXT,01,01,01,ANTENNA OK*35
$GNGGA,074456.000,3957.59117,N,11621.06265,E,1,11,0.9,67.1,M,-9.9,M,,*63
$GNGLL,3957.59117,N,11621.06265,E,074456.000,A,A*42
$GNGSA,A,3,01,02,03,07,08,17,22,194,195,,,,1.7,0.9,1.4,1*33
$GNGSA,A,3,29,59,,,,,,,,,,,1.7,0.9,1.4,4*39
$GPGSV,4,1,13,01,71,127,39,02,52,054,36,03,11,144,22,07,36,202,20,0*68
$GPGSV,4,2,13,08,26,069,23,13,05,293,23,14,51,311,38,17,32,268,36,0*6A
$GPGSV,4,3,13,19,10,259,,22,35,309,38,30,47,240,,194,62,103,37,0*58
$GPGSV,4,4,13,195,60,127,37,0*6C
$BDGSV,1,1,04,07,,,34,29,67,042,34,40,,,36,59,35,147,30,0*71
$GNRMC,074456.000,A,3957.59117,N,11621.06265,E,2.01,352.31,190126,,,A,V*07
$GNVTG,352.31,T,,M,2.01,N,3.73,K,A*21
$GNZDA,074456.000,19,01,2026,00,00*43
$GPTXT,01,01,01,ANTENNA OK*35
$GNGGA,074457.000,3957.59147,N,11621.06235,E,1,11,0.9,68.6,M,-9.9,M,,*6A
$GNGLL,3957.59147,N,11621.06235,E,074457.000,A,A*43
$GNGSA,A,3,01,02,03,07,08,17,22,194,195,,,,1.7,0.9,1.4,1*33
$GNGSA,A,3,29,59,,,,,,,,,,,1.7,0.9,1.4,4*39
$GPGSV,4,1,13,01,71,127,39,02,52,054,35,03,11,144,22,07,36,202,20,0*6B
$GPGSV,4,2,13,08,26,069,24,13,05,293,23,14,51,311,38,17,32,268,32,0*69
$GPGSV,4,3,13,19,10,259,,22,35,309,36,30,47,240,,194,62,103,37,0*56
$GPGSV,4,4,13,195,60,127,37,0*6C
$BDGSV,1,1,04,07,,,34,29,67,042,34,40,,,36,59,35,147,30,0*71
$GNRMC,074457.000,A,3957.59147,N,11621.06235,E,1.95,337.29,190126,,,A,V*02
$GNVTG,337.29,T,,M,1.95,N,3.61,K,A*26
$GNZDA,074457.000,19,01,2026,00,00*42
$GPTXT,01,01,01,ANTENNA OK*35
$GNGGA,074458.000,3957.59157,N,11621.06214,E,1,11,0.9,69.8,M,-9.9,M,,*68
$GNGLL,3957.59157,N,11621.06214,E,074458.000,A,A*4E
$GNGSA,A,3,01,02,03,07,08,17,22,194,195,,,,1.7,0.9,1.4,1*33
$GNGSA,A,3,29,59,,,,,,,,,,,1.7,0.9,1.4,4*39
$GPGSV,4,1,13,01,71,127,39,02,52,054,35,03,11,144,22,07,36,202,20,0*6B
$GPGSV,4,2,13,08,26,069,24,13,05,293,23,14,51,311,38,17,32,268,32,0*69
$GPGSV,4,3,13,19,10,259,,22,35,309,38,30,47,240,,194,62,103,38,0*57
$GPGSV,4,4,13,195,60,127,37,0*6C
$BDGSV,1,1,04,07,,,33,29,67,042,34,40,,,36,59,35,147,30,0*76
$GNRMC,074458.000,A,3957.59157,N,11621.06214,E,1.67,337.29,190126,,,A,V*02
$GNVTG,337.29,T,,M,1.67,N,3.09,K,A*25
$GNZDA,074458.000,19,01,2026,00,00*4D
$GPTXT,01,01,01,ANTENNA OK*35
$GNGGA,074459.000,3957.59180,N,11621.06207,E,1,11,0.9,70.4,M,-9.9,M,,*65
$GNGLL,3957.59180,N,11621.06207,E,074459.000,A,A*47
$GNGSA,A,3,01,02,03,07,08,17,22,194,195,,,,1.7,0.9,1.4,1*33
$GNGSA,A,3,29,59,,,,,,,,,,,1.7,0.9,1.4,4*39
$GPGSV,4,1,13,01,71,127,39,02,52,054,40,03,11,144,22,07,36,202,20,0*69
$GPGSV,4,2,13,08,26,069,26,13,05,293,23,14,51,311,40,17,32,268,30,0*66
$GPGSV,4,3,13,19,10,259,,22,35,309,38,30,47,240,,194,62,103,40,0*58
$GPGSV,4,4,13,195,60,127,38,0*63
$BDGSV,1,1,04,07,,,33,29,67,042,34,40,,,36,59,35,147,30,0*76
$GNRMC,074459.000,A,3957.59180,N,11621.06207,E,1.31,337.29,190126,,,A,V*08
$GNVTG,337.29,T,,M,1.31,N,2.42,K,A*28
$GNZDA,074459.000,19,01,2026,00,00*4C
$GPTXT,01,01,01,ANTENNA OK*35
$GNGGA,074500.000,3957.59166,N,11621.06195,E,1,11,0.9,71.5,M,-9.9,M,,*68
$GNGLL,3957.59166,N,11621.06195,E,074500.000,A,A*4A
$GNGSA,A,3,01,02,03,07,08,17,22,194,195,,,,1.7,0.9,1.4,1*33
$GNGSA,A,3,29,59,,,,,,,,,,,1.7,0.9,1.4,4*39
$GPGSV,4,1,13,01,71,127,38,02,52,054,36,03,11,144,22,07,36,202,20,0*69
$GPGSV,4,2,13,08,26,069,26,13,05,293,23,14,51,311,40,17,32,268,36,0*60
$GPGSV,4,3,13,19,10,259,,22,35,309,38,30,47,240,,194,62,103,40,0*58
$GPGSV,4,4,13,195,60,127,38,0*63
$BDGSV,2,1,05,07,,,33,26,,,40,29,67,042,36,40,,,35,0*4E
$BDGSV,2,2,05,59,35,147,30,0*4A
$GNRMC,074500.000,A,3957.59166,N,11621.06195,E,0.44,337.29,190126,,,A,V*06
$GNVTG,337.29,T,,M,0.44,N,0.82,K,A*25
$GNZDA,074500.000,19,01,2026,00,00*41
$GPTXT,01,01,01,ANTENNA OK*35
$GNGGA,074501.000,3957.59147,N,11621.06194,E,1,11,0.9,72.1,M,-9.9,M,,*6C
$GNGLL,3957.59147,N,11621.06194,E,074501.000,A,A*49
$GNGSA,A,3,01,02,03,07,08,17,22,194,195,,,,1.7,0.9,1.4,1*33
$GNGSA,A,3,29,59,,,,,,,,,,,1.7,0.9,1.4,4*39
$GPGSV,4,1,13,01,71,127,39,02,52,054,31,03,11,144,22,07,36,202,20,0*6F
$GPGSV,4,2,13,08,26,069,26,13,05,293,23,14,51,311,38,17,32,268,36,0*6F
$GPGSV,4,3,13,19,10,259,,22,35,309,38,30,47,240,,194,62,103,39,0*56
$GPGSV,4,4,13,195,60,127,38,0*63
$BDGSV,2,1,05,07,,,33,26,,,33,29,67,042,36,40,,,35,0*4A
$BDGSV,2,2,05,59,35,147,26,0*4D
$GNRMC,074501.000,A,3957.59147,N,11621.06194,E,0.00,337.29,190126,,,A,V*05
$GNVTG,337.29,T,,M,0.00,N,0.00,K,A*2F
$GNZDA,074501.000,19,01,2026,00,00*40
$GPTXT,01,01,01,ANTENNA OK*35
$GNGGA,074502.000,3957.59110,N,11621.06194,E,1,11,0.9,73.1,M,-9.9,M,,*6C
$GNGLL,3957.59110,N,11621.06194,E,074502.000,A,A*48
$GNGSA,A,3,01,02,03,07,08,17,22,194,195,,,,1.7,0.9,1.4,1*33
$GNGSA,A,3,29,59,,,,,,,,,,,1.7,0.9,1.4,4*39
$GPGSV,4,1,13,01,71,127,35,02,52,054,33,03,11,144,22,07,36,202,20,0*61
$GPGSV,4,2,13,08,26,069,26,13,05,293,29,14,51,311,35,17,32,268,37,0*69
$GPGSV,4,3,13,19,10,259,28,22,35,309,38,30,47,240,,194,62,103,36,0*53
$GPGSV,4,4,13,195,60,127,34,0*6F
$BDGSV,2,1,05,07,,,33,26,,,33,29,67,042,37,40,,,36,0*48
$BDGSV,2,2,05,59,35,147,26,0*4D
$GNRMC,074502.000,A,3957.59110,N,11621.06194,E,0.00,337.29,190126,,,A,V*04
$GNVTG,337.29,T,,M,0.00,N,0.00,K,A*2F
$GNZDA,074502.000,19,01,2026,00,00*43
$GPTXT,01,01,01,ANTENNA OK*35
$GNGGA,074503.000,3957.59180,N,11621.06190,E,1,11,0.9,76.2,M,-9.9,M,,*66
$GNGLL,3957.59180,N,11621.06190,E,074503.000,A,A*44
$GNGSA,A,3,01,02,03,07,08,17,22,194,195,,,,1.7,0.9,1.4,1*33
$GNGSA,A,3,29,59,,,,,,,,,,,1.7,0.9,1.4,4*39
$GPGSV,4,1,13,01,71,127,38,02,52,054,32,03,11,144,21,07,36,202,20,0*6E
$GPGSV,4,2,13,08,26,069,26,13,05,293,29,14,51,311,35,17,32,268,34,0*6A
$GPGSV,4,3,13,19,10,259,28,22,35,309,38,30,47,240,,194,62,103,33,0*56
$GPGSV,4,4,13,195,60,127,31,0*6A
$BDGSV,2,1,05,07,,,35,26,,,31,29,67,042,37,40,,,38,0*42
$BDGSV,2,2,05,59,35,147,26,0*4D
$GNRMC,074503.000,A,3957.59180,N,11621.06190,E,4.23,358.63,190126,,,A,V*0A
$GNVTG,358.63,T,,M,4.23,N,7.84,K,A*26
$GNZDA,074503.000,19,01,2026,00,00*42
$GPTXT,01,01,01,ANTENNA OK*35
$GNGGA,074504.000,3957.59232,N,11621.06149,E,1,11,0.9,78.2,M,-9.9,M,,*61
$GNGLL,3957.59232,N,11621.06149,E,074504.000,A,A*4D
$GNGSA,A,3,01,02,03,07,08,17,22,194,195,,,,1.7,0.9,1.4,1*33
$GNGSA,A,3,29,59,,,,,,,,,,,1.7,0.9,1.4,4*39
$GPGSV,4,1,13,01,71,127,38,02,52,054,35,03,11,144,21,07,36,202,20,0*69
$GPGSV,4,2,13,08,26,069,26,13,05,293,23,14,51,311,35,17,32,268,30,0*64
$GPGSV,4,3,13,19,10,259,25,22,35,309,31,30,47,240,,194,62,103,33,0*52
$GPGSV,4,4,13,195,60,127,31,0*6A
$BDGSV,2,1,06,01,,,21,07,,,35,26,,,33,29,67,042,35,0*4C
$BDGSV,2,2,06,40,,,37,59,35,147,26,0*4E
$GNRMC,074504.000,A,3957.59232,N,11621.06149,E,3.18,313.97,190126,,,A,V*08
$GNVTG,313.97,T,,M,3.18,N,5.90,K,A*2A
$GNZDA,074504.000,19,01,2026,00,00*45
$GPTXT,01,01,01,ANTENNA OK*35
$GNGGA,074505.000,3957.59236,N,11621.06079,E,1,11,0.9,79.8,M,-9.9,M,,*6D
$GNGLL,3957.59236,N,11621.06079,E,074505.000,A,A*4A
$GNGSA,A,3,01,02,03,07,08,17,22,194,195,,,,1.7,0.9,1.4,1*33
$GNGSA,A,3,29,59,,,,,,,,,,,1.7,0.9,1.4,4*39
$GPGSV,4,1,13,01,71,127,37,02,52,054,35,03,11,144,21,07,36,202,20,0*66
$GPGSV,4,2,13,08,26,069,25,13,05,293,23,14,51,311,34,17,32,268,30,0*66
$GPGSV,4,3,13,19,10,259,25,22,35,309,31,30,47,240,,194,62,103,33,0*52
$GPGSV,4,4,13,195,60,127,31,0*6A
$BDGSV,2,1,06,01,,,21,07,,,33,26,,,31,29,67,042,35,0*48
$BDGSV,2,2,06,40,,,37,59,35,147,26,0*4E
$GNRMC,074505.000,A,3957.59236,N,11621.06079,E,2.87,289.89,190126,,,A,V*05
$GNVTG,289.89,T,,M,2.87,N,5.32,K,A*28
$GNZDA,074505.000,19,01,2026,00,00*44
$GPTXT,01,01,01,ANTENNA OK*35
$GNGGA,074506.000,3957.59240,N,11621.06094,E,1,11,0.9,73.9,M,-9.9,M,,*67
$GNGLL,3957.59240,N,11621.06094,E,074506.000,A,A*4B
$GNGSA,A,3,01,02,03,07,08,17,22,194,195,,,,1.7,0.9,1.4,1*33
$GNGSA,A,3,29,59,,,,,,,,,,,1.7,0.9,1.4,4*39
$GPGSV,4,1,13,01,71,127,34,02,52,054,35,03,11,144,21,07,36,202,20,0*65
$GPGSV,4,2,13,08,26,069,25,13,05,293,25,14,51,311,32,17,32,268,37,0*61
$GPGSV,4,3,13,19,10,259,25,22,35,309,31,30,47,240,21,194,62,103,33,0*51
$GPGSV,4,4,13,195,60,127,30,0*6B
$BDGSV,2,1,06,01,,,21,07,,,33,26,,,31,29,67,042,35,0*48
$BDGSV,2,2,06,40,,,37,59,35,147,26,0*4E
$GNRMC,074506.000,A,3957.59240,N,11621.06094,E,1.59,289.89,190126,,,A,V*04
$GNVTG,289.89,T,,M,1.59,N,2.95,K,A*22
$GNZDA,074506.000,19,01,2026,00,00*47
$GPTXT,01,01,01,ANTENNA OK*35
$GNGGA,074507.000,3957.59203,N,11621.06050,E,1,11,0.9,72.9,M,-9.9,M,,*68
$GNGLL,3957.59203,N,11621.06050,E,074507.000,A,A*45
$GNGSA,A,3,01,02,03,07,08,17,22,194,195,,,,1.7,0.9,1.4,1*33
$GNGSA,A,3,29,59,,,,,,,,,,,1.7,0.9,1.4,4*39
$GPGSV,4,1,13,01,71,127,34,02,52,054,35,03,11,144,21,07,36,202,19,0*6F
$GPGSV,4,2,13,08,26,069,25,13,05,293,25,14,51,311,35,17,32,268,37,0*66
$GPGSV,4,3,13,19,10,259,21,22,35,309,29,30,47,240,21,194,62,103,33,0*5C
$GPGSV,4,4,13,195,60,127,30,0*6B
$BDGSV,2,1,06,01,,,23,07,,,33,26,,,32,29,67,042,35,0*49
$BDGSV,2,2,06,40,,,37,59,35,147,26,0*4E
$GNRMC,074507.000,A,3957.59203,N,11621.06050,E,0.65,289.89,190126,,,A,V*04
$GNVTG,289.89,T,,M,0.65,N,1.21,K,A*20
$GNZDA,074507.000,19,01,2026,00,00*46
$GPTXT,01,01,01,ANTENNA OK*35
$GNGGA,074508.000,3957.59186,N,11621.06023,E,1,11,0.9,72.7,M,-9.9,M,,*63
$GNGLL,3957.59186,N,11621.06023,E,074508.000,A,A*40
$GNGSA,A,3,01,02,03,07,08,17,22,194,195,,,,1.7,0.9,1.4,1*33
$GNGSA,A,3,29,59,,,,,,,,,,,1.7,0.9,1.4,4*39
$GPGSV,4,1,13,01,71,127,34,02,52,054,30,03,11,144,21,07,36,202,19,0*6A
$GPGSV,4,2,13,08,26,069,25,13,05,293,25,14,51,311,35,17,32,268,37,0*66
$GPGSV,4,3,13,19,10,259,21,22,35,309,34,30,47,240,21,194,62,103,32,0*51
$GPGSV,4,4,13,195,60,127,30,0*6B
$BDGSV,2,1,06,01,,,23,07,,,32,26,,,32,29,67,042,34,0*49
$BDGSV,2,2,06,40,,,32,59,35,147,22,0*4F
$GNRMC,074508.000,A,3957.59186,N,11621.06023,E,0.93,289.89,190126,,,A,V*08
$GNVTG,289.89,T,,M,0.93,N,1.72,K,A*2F
$GNZDA,074508.000,19,01,2026,00,00*49
$GPTXT,01,01,01,ANTENNA OK*35
$GNGGA,074509.000,3957.59167,N,11621.06003,E,1,11,0.9,73.0,M,-9.9,M,,*69
$GNGLL,3957.59167,N,11621.06003,E,074509.000,A,A*4C
$GNGSA,A,3,01,02,03,07,08,17,22,194,195,,,,1.7,0.9,1.4,1*33
$GNGSA,A,3,29,59,,,,,,,,,,,1.7,0.9,1.4,4*39
$GPGSV,4,1,13,01,71,127,34,02,52,054,34,03,11,144,21,07,36,202,19,0*6E
$GPGSV,4,2,13,08,26,069,22,13,05,293,22,14,51,311,35,17,32,268,38,0*69
$GPGSV,4,3,13,19,10,259,21,22,35,309,39,30,47,240,21,194,62,103,32,0*5C
$GPGSV,4,4,13,195,60,127,30,0*6B
$BDGSV,2,1,06,01,,,23,07,,,32,26,,,32,29,67,042,31,0*4C
$BDGSV,2,2,06,40,,,35,59,35,147,22,0*48
$GNRMC,074509.000,A,3957.59167,N,11621.06003,E,0.60,289.89,190126,,,A,V*08
$GNVTG,289.89,T,,M,0.60,N,1.10,K,A*27
$GNZDA,074509.000,19,01,2026,00,00*48
$GPTXT,01,01,01,ANTENNA OK*35
$GNGGA,074510.000,3957.59150,N,11621.05983,E,1,11,0.9,72.8,M,-9.9,M,,*6E
$GNGLL,3957.59150,N,11621.05983,E,074510.000,A,A*42
$GNGSA,A,3,01,02,03,07,08,17,22,194,195,,,,1.7,0.9,1.4,1*33
$GNGSA,A,3,29,59,,,,,,,,,,,1.7,0.9,1.4,4*39
$GPGSV,4,1,13,01,71,127,34,02,52,054,36,03,11,144,21,07,36,202,19,0*6C
$GPGSV,4,2,13,08,26,069,22,13,05,293,22,14,51,311,34,17,32,268,38,0*68
$GPGSV,4,3,13,19,10,259,21,22,35,309,39,30,47,240,18,194,62,103,30,0*54
$GPGSV,4,4,13,195,60,126,30,0*6A
$BDGSV,2,1,06,01,,,23,07,,,32,26,,,32,29,67,042,34,0*49
$BDGSV,2,2,06,40,,,33,59,35,147,22,0*4E
$GNRMC,074510.000,A,3957.59150,N,11621.05983,E,0.57,289.89,190126,,,A,V*02
$GNVTG,289.89,T,,M,0.57,N,1.05,K,A*27
$GNZDA,074510.000,19,01,2026,00,00*40
$GPTXT,01,01,01,ANTENNA OK*35
$GNGGA,074511.000,3957.59132,N,11621.05967,E,1,11,0.9,72.3,M,-9.9,M,,*6A
$GNGLL,3957.59132,N,11621.05967,E,074511.000,A,A*4D
$GNGSA,A,3,01,02,03,07,08,17,22,194,195,,,,1.7,0.9,1.4,1*33
$GNGSA,A,3,29,59,,,,,,,,,,,1.7,0.9,1.4,4*39
$GPGSV,4,1,13,01,71,127,31,02,52,054,36,03,11,144,21,07,36,202,19,0*69
$GPGSV,4,2,13,08,26,069,22,13,05,293,22,14,51,311,36,17,32,268,37,0*65
$GPGSV,4,3,13,19,10,259,23,22,35,309,26,30,47,240,18,194,62,103,30,0*58
$GPGSV,4,4,13,195,60,126,30,0*6A
$BDGSV,2,1,06,01,,,23,07,,,33,26,,,32,29,67,042,34,0*48
$BDGSV,2,2,06,40,,,33,59,35,147,22,0*4E
$GNRMC,074511.000,A,3957.59132,N,11621.05967,E,0.89,289.89,190126,,,A,V*0E
$GNVTG,289.89,T,,M,0.89,N,1.65,K,A*22
$GNZDA,074511.000,19,01,2026,00,00*41
$GPTXT,01,01,01,ANTENNA OK*35
$GNGGA,074512.000,3957.59114,N,11621.05928,E,1,11,0.9,73.5,M,-9.9,M,,*61
$GNGLL,3957.59114,N,11621.05928,E,074512.000,A,A*41
$GNGSA,A,3,01,02,03,07,08,17,22,194,195,,,,1.7,0.9,1.4,1*33
$GNGSA,A,3,29,59,,,,,,,,,,,1.7,0.9,1.4,4*39
$GPGSV,4,1,13,01,71,127,34,02,52,054,34,03,11,144,21,07,36,202,19,0*6E
$GPGSV,4,2,13,08,26,069,22,13,05,293,22,14,51,311,36,17,32,268,33,0*61
$GPGSV,4,3,13,19,10,259,29,22,35,309,31,30,47,240,18,194,62,103,31,0*55
$GPGSV,4,4,13,195,60,126,33,0*69
$BDGSV,2,1,06,01,,,23,07,,,35,26,,,31,29,67,042,31,0*48
$BDGSV,2,2,06,40,,,39,59,35,147,22,0*44
$GNRMC,074512.000,A,3957.59114,N,11621.05928,E,1.10,289.89,190126,,,A,V*03
$GNVTG,289.89,T,,M,1.10,N,2.03,K,A*20
$GNZDA,074512.000,19,01,2026,00,00*42
$GPTXT,01,01,01,ANTENNA OK*35
$GNGGA,074513.000,3957.59096,N,11621.05891,E,1,11,0.9,75.0,M,-9.9,M,,*6B
$GNGLL,3957.59096,N,11621.05891,E,074513.000,A,A*48
$GNGSA,A,3,01,02,03,07,08,17,22,194,195,,,,1.7,0.9,1.4,1*33
$GNGSA,A,3,29,59,,,,,,,,,,,1.7,0.9,1.4,4*39
$GPGSV,4,1,13,01,71,127,34,02,52,054,36,03,11,144,21,07,36,202,19,0*6C
$GPGSV,4,2,13,08,26,069,22,13,05,293,24,14,51,311,27,17,32,268,34,0*60
$GPGSV,4,3,13,19,10,259,29,22,35,309,31,30,47,240,22,194,62,103,33,0*5E
$GPGSV,4,4,13,195,60,126,33,0*69
$BDGSV,2,1,06,01,,,23,07,,,32,26,,,33,29,67,042,31,0*4D
$BDGSV,2,2,06,40,,,33,59,35,147,22,0*4E
$GNRMC,074513.000,A,3957.59096,N,11621.05891,E,1.31,289.89,190126,,,A,V*09
$GNVTG,289.89,T,,M,1.31,N,2.43,K,A*27
$GNZDA,074513.000,19,01,2026,00,00*43
$GPTXT,01,01,01,ANTENNA OK*35
$GNGGA,074514.000,3957.59079,N,11621.05852,E,1,11,0.9,75.9,M,-9.9,M,,*6B
$GNGLL,3957.59079,N,11621.05852,E,074514.000,A,A*41
$GNGSA,A,3,01,02,03,07,08,17,22,194,195,,,,1.7,0.9,1.4,1*33
$GNGSA,A,3,29,59,,,,,,,,,,,1.7,0.9,1.4,4*39
$GPGSV,4,1,13,01,71,127,34,02,52,054,33,03,11,144,21,07,36,202,16,0*66
$GPGSV,4,2,13,08,26,069,22,13,05,293,24,14,51,311,34,17,32,268,37,0*61
$GPGSV,4,3,13,19,10,259,29,22,35,309,31,30,47,240,22,194,62,103,30,0*5D
$GPGSV,4,4,13,195,60,126,33,0*69
$BDGSV,2,1,06,01,,,23,07,,,34,26,,,33,29,67,042,33,0*49
$BDGSV,2,2,06,40,,,33,59,35,147,22,0*4E
$GNRMC,074514.000,A,3957.59079,N,11621.05852,E,1.51,289.89,190126,,,A,V*06
$GNVTG,289.89,T,,M,1.51,N,2.80,K,A*2E
$GNZDA,074514.000,19,01,2026,00,00*44
$GPTXT,01,01,01,ANTENNA OK*35
$GNGGA,074515.000,3957.59066,N,11621.05821,E,1,11,0.9,76.1,M,-9.9,M,,*6B
$GNGLL,3957.59066,N,11621.05821,E,074515.000,A,A*4A
$GNGSA,A,3,01,02,03,07,08,17,22,194,195,,,,1.7,0.9,1.4,1*33
$GNGSA,A,3,29,59,,,,,,,,,,,1.7,0.9,1.4,4*39
$GPGSV,4,1,13,01,71,127,33,02,52,054,33,03,11,144,20,07,36,202,16,0*60
$GPGSV,4,2,13,08,26,069,22,13,05,293,24,14,51,311,34,17,32,268,35,0*63
$GPGSV,4,3,13,19,10,259,26,22,35,309,31,30,47,240,22,194,62,103,30,0*52
$GPGSV,4,4,13,195,60,126,30,0*6A
$BDGSV,2,1,06,01,,,23,07,,,30,26,,,31,29,67,042,35,0*49
$BDGSV,2,2,06,40,,,33,59,35,147,16,0*49
$GNRMC,074515.000,A,3957.59066,N,11621.05821,E,0.92,289.89,190126,,,A,V*03
$GNVTG,289.89,T,,M,0.92,N,1.70,K,A*2C
$GNZDA,074515.000,19,01,2026,00,00*45
$GPTXT,01,01,01,ANTENNA OK*35
$GNGGA,074516.000,3957.59034,N,11621.05769,E,1,10,1.0,76.8,M,-9.9,M,,*6C
$GNGLL,3957.59034,N,11621.05769,E,074516.000,A,A*4D
$GNGSA,A,3,01,02,03,07,08,17,22,194,195,,,,1.8,1.0,1.5,1*35
$GNGSA,A,3,29,,,,,,,,,,,,1.8,1.0,1.5,4*33
$GPGSV,4,1,13,01,71,127,29,02,52,054,34,03,11,144,20,07,36,202,16,0*6C
$GPGSV,4,2,13,08,26,069,20,13,05,293,24,14,51,311,34,17,32,268,35,0*61
$GPGSV,4,3,13,19,10,259,26,22,35,309,31,30,47,240,22,194,62,103,32,0*50
$GPGSV,4,4,13,195,60,126,30,0*6A
$BDGSV,2,1,06,01,,,23,07,,,30,26,,,28,29,67,042,35,0*41
$BDGSV,2,2,06,40,,,34,59,35,147,16,0*4E
$GNRMC,074516.000,A,3957.59034,N,11621.05769,E,1.78,289.89,190126,,,A,V*01
$GNVTG,289.89,T,,M,1.78,N,3.30,K,A*2F
$GNZDA,074516.000,19,01,2026,00,00*46
$GPTXT,01,01,01,ANTENNA OK*35
$GNGGA,074517.000,3957.59007,N,11621.05706,E,1,10,1.0,77.7,M,-9.9,M,,*6A
$GNGLL,3957.59007,N,11621.05706,E,074517.000,A,A*45
$GNGSA,A,3,01,02,03,07,08,17,22,194,195,,,,1.8,1.0,1.5,1*35
$GNGSA,A,3,29,,,,,,,,,,,,1.8,1.0,1.5,4*33
$GPGSV,4,1,13,01,71,127,33,02,52,054,34,03,11,144,20,07,36,202,16,0*67
$GPGSV,4,2,13,08,26,069,20,13,05,293,24,14,51,311,34,17,32,268,35,0*61
$GPGSV,4,3,13,19,10,259,28,22,35,309,31,30,47,240,22,194,62,103,32,0*5E
$GPGSV,4,4,13,195,60,126,31,0*6B
$BDGSV,2,1,06,01,,,19,07,,,32,26,,,33,29,67,042,35,0*40
$BDGSV,2,2,06,40,,,34,59,35,147,16,0*4E
$GNRMC,074517.000,A,3957.59007,N,11621.05706,E,1.72,289.89,190126,,,A,V*03
$GNVTG,289.89,T,,M,1.72,N,3.18,K,A*2F
$GNZDA,074517.000,19,01,2026,00,00*47
$GPTXT,01,01,01,ANTENNA OK*35
$GNGGA,074518.000,3957.59005,N,11621.05659,E,1,10,1.0,78.4,M,-9.9,M,,*60
$GNGLL,3957.59005,N,11621.05659,E,074518.000,A,A*43
$GNGSA,A,3,01,02,03,07,08,17,22,194,195,,,,1.8,1.0,1.5,1*35
$GNGSA,A,3,29,,,,,,,,,,,,1.8,1.0,1.5,4*33
$GPGSV,4,1,13,01,71,127,35,02,52,054,34,03,11,144,20,07,36,202,16,0*61
$GPGSV,4,2,13,08,26,069,20,13,05,293,24,14,51,311,33,17,32,268,35,0*66
$GPGSV,4,3,13,19,10,259,28,22,35,309,31,30,47,240,22,194,62,103,32,0*5E
$GPGSV,4,4,13,195,60,126,31,0*6B
$BDGSV,2,1,06,01,,,19,07,,,29,26,,,30,29,67,042,34,0*48
$BDGSV,2,2,06,40,,,34,59,35,147,16,0*4E
$GNRMC,074518.000,A,3957.59005,N,11621.05659,E,1.48,289.89,190126,,,A,V*0C
$GNVTG,289.89,T,,M,1.48,N,2.73,K,A*2A
$GNZDA,074518.000,19,01,2026,00,00*48
$GPTXT,01,01,01,ANTENNA OK*35
$GNGGA,074519.000,3957.58985,N,11621.05590,E,1,10,1.0,79.4,M,-9.9,M,,*66
$GNGLL,3957.58985,N,11621.05590,E,074519.000,A,A*44
$GNGSA,A,3,01,02,03,07,08,17,22,194,195,,,,1.8,1.0,1.5,1*35
$GNGSA,A,3,29,,,,,,,,,,,,1.8,1.0,1.5,4*33
$GPGSV,4,1,13,01,71,127,36,02,52,054,34,03,11,144,20,07,36,202,16,0*62
$GPGSV,4,2,13,08,26,069,22,13,05,293,23,14,51,311,33,17,32,268,34,0*62
$GPGSV,4,3,13,19,10,259,28,22,35,309,32,30,47,240,22,194,62,103,32,0*5D
$GPGSV,4,4,13,195,60,126,31,0*6B
$BDGSV,2,1,06,01,,,19,07,,,32,26,,,30,29,67,042,36,0*40
$BDGSV,2,2,06,40,,,34,59,35,147,,0*49
$GNRMC,074519.000,A,3957.58985,N,11621.05590,E,1.38,289.89,190126,,,A,V*0C
$GNVTG,289.89,T,,M,1.38,N,2.56,K,A*2A
$GNZDA,074519.000,19,01,2026,00,00*49
$GPTXT,01,01,01,ANTENNA OK*35
$GNGGA,074520.000,3957.58970,N,11621.05522,E,1,10,1.0,80.4,M,-9.9,M,,*69
$GNGLL,3957.58970,N,11621.05522,E,074520.000,A,A*4D
$GNGSA,A,3,01,02,03,07,08,17,22,194,195,,,,1.8,1.0,1.5,1*35
$GNGSA,A,3,29,,,,,,,,,,,,1.8,1.0,1.5,4*33
$GPGSV,4,1,13,01,71,127,39,02,52,054,32,03,11,144,15,07,36,202,16,0*6D
$GPGSV,4,2,13,08,26,069,22,13,05,293,23,14,51,311,33,17,32,268,34,0*62
$GPGSV,4,3,13,19,10,259,28,22,35,309,34,30,47,240,22,194,62,103,32,0*5B
$GPGSV,4,4,13,195,60,126,31,0*6B
$BDGSV,2,1,06,01,,,19,07,,,35,26,,,30,29,67,042,36,0*47
$BDGSV,2,2,06,40,,,33,59,35,147,,0*4E
$GNRMC,074520.000,A,3957.58970,N,11621.05522,E,1.83,289.89,190126,,,A,V*05
$GNVTG,289.89,T,,M,1.83,N,3.39,K,A*22
$GNZDA,074520.000,19,01,2026,00,00*43
$GPTXT,01,01,01,ANTENNA OK*35
$GNGGA,074521.000,3957.58959,N,11621.05435,E,1,10,1.0,81.5,M,-9.9,M,,*64
$GNGLL,3957.58959,N,11621.05435,E,074521.000,A,A*40
$GNGSA,A,3,01,02,03,07,08,17,22,194,195,,,,1.8,1.0,1.5,1*35
$GNGSA,A,3,29,,,,,,,,,,,,1.8,1.0,1.5,4*33
$GPGSV,4,1,13,01,71,127,34,02,52,054,32,03,11,144,15,07,36,202,16,0*60
$GPGSV,4,2,13,08,26,069,24,13,05,293,23,14,51,311,33,17,32,268,35,0*65
$GPGSV,4,3,13,19,10,259,26,22,35,309,31,30,47,240,22,194,62,103,32,0*50
$GPGSV,4,4,13,195,60,126,30,0*6A
$BDGSV,2,1,06,01,,,19,07,,,35,26,,,37,29,67,042,36,0*40
$BDGSV,2,2,06,40,,,35,59,35,147,,0*48
$GNRMC,074521.000,A,3957.58959,N,11621.05435,E,1.84,289.89,190126,,,A,V*0F
$GNVTG,289.89,T,,M,1.84,N,3.40,K,A*2B
$GNZDA,074521.000,19,01,2026,00,00*42
$GPTXT,01,01,01,ANTENNA OK*35
$GNGGA,074522.000,3957.58954,N,11621.05364,E,1,10,1.0,82.0,M,-9.9,M,,*6F
$GNGLL,3957.58954,N,11621.05364,E,074522.000,A,A*4D
$GNGSA,A,3,01,02,03,07,08,17,22,194,195,,,,1.8,1.0,1.5,1*35
$GNGSA,A,3,29,,,,,,,,,,,,1.8,1.0,1.5,4*33
$GPGSV,4,1,13,01,71,127,34,02,52,054,32,03,11,144,15,07,36,202,16,0*60
$GPGSV,4,2,13,08,26,069,24,13,05,293,23,14,51,311,38,17,32,268,36,0*6D
$GPGSV,4,3,13,19,10,259,26,22,35,309,33,30,47,240,22,194,62,103,32,0*52
$GPGSV,4,4,13,195,60,126,22,0*69
$BDGSV,2,1,06,01,,,06,07,,,34,26,,,37,29,67,042,35,0*4C
$BDGSV,2,2,06,40,,,37,59,35,147,,0*4A
$GNRMC,074522.000,A,3957.58954,N,11621.05364,E,1.66,289.89,190126,,,A,V*0E
$GNVTG,289.89,T,,M,1.66,N,3.07,K,A*24
$GNZDA,074522.000,19,01,2026,00,00*41
$GPTXT,01,01,01,ANTENNA OK*35
$GNGGA,074523.000,3957.58926,N,11621.05303,E,1,10,1.0,82.4,M,-9.9,M,,*6E
$GNGLL,3957.58926,N,11621.05303,E,074523.000,A,A*48
$GNGSA,A,3,01,02,03,07,08,17,22,194,195,,,,1.8,1.0,1.5,1*35
$GNGSA,A,3,29,,,,,,,,,,,,1.8,1.0,1.5,4*33
$GPGSV,4,1,13,01,71,127,32,02,52,054,32,03,11,144,15,07,36,202,16,0*66
$GPGSV,4,2,13,08,26,069,24,13,05,293,23,14,51,311,36,17,32,268,40,0*62
$GPGSV,4,3,13,19,10,259,26,22,35,309,33,30,47,240,22,194,62,103,32,0*52
$GPGSV,4,4,13,195,60,126,27,0*6C
$BDGSV,2,1,05,07,,,34,26,,,35,29,67,042,35,40,,,37,0*4A
$BDGSV,2,2,05,59,35,147,,0*49
$GNRMC,074523.000,A,3957.58926,N,11621.05303,E,1.05,289.89,190126,,,A,V*0E
$GNVTG,289.89,T,,M,1.05,N,1.94,K,A*29
$GNZDA,074523.000,19,01,2026,00,00*40
$GPTXT,01,01,01,ANTENNA OK*35
$GNGGA,074524.000,3957.58882,N,11621.05258,E,1,10,1.0,82.7,M,-9.9,M,,*6A
$GNGLL,3957.58882,N,11621.05258,E,074524.000,A,A*4F
$GNGSA,A,3,01,02,03,07,08,17,22,194,195,,,,1.8,1.0,1.5,1*35
$GNGSA,A,3,29,,,,,,,,,,,,1.8,1.0,1.5,4*33
$GPGSV,4,1,13,01,71,127,34,02,52,054,32,03,11,144,15,07,36,202,16,0*60
$GPGSV,4,2,13,08,26,069,24,13,05,293,23,14,51,311,31,17,32,268,37,0*65
$GPGSV,4,3,13,19,10,259,26,22,35,309,34,30,47,240,22,194,62,103,31,0*56
$GPGSV,4,4,13,195,60,126,27,0*6C
$BDGSV,2,1,05,07,,,32,26,,,31,29,67,042,35,40,,,37,0*48
$BDGSV,2,2,05,59,35,147,,0*49
$GNRMC,074524.000,A,3957.58882,N,11621.05258,E,1.80,289.89,190126,,,A,V*04
$GNVTG,289.89,T,,M,1.80,N,3.34,K,A*2C
$GNZDA,074524.000,19,01,2026,00,00*47
$GPTXT,01,01,01,ANTENNA OK*35
$GNGGA,074525.000,3957.58850,N,11621.05196,E,1,10,1.0,83.1,M,-9.9,M,,*62
$GNGLL,3957.58850,N,11621.05196,E,074525.000,A,A*40
$GNGSA,A,3,01,02,03,07,08,17,22,194,195,,,,1.8,1.0,1.5,1*35
$GNGSA,A,3,29,,,,,,,,,,,,1.8,1.0,1.5,4*33
$GPGSV,4,1,13,01,71,126,34,02,52,054,32,03,11,144,15,07,36,202,16,0*61
$GPGSV,4,2,13,08,26,069,24,13,05,293,23,14,51,311,35,17,32,268,37,0*61
$GPGSV,4,3,13,19,10,259,26,22,35,309,37,30,47,240,22,194,62,103,31,0*55
$GPGSV,4,4,13,195,60,126,23,0*68
$BDGSV,2,1,05,07,,,26,26,,,34,29,67,042,34,40,,,36,0*48
$BDGSV,2,2,05,59,35,147,,0*49
$GNRMC,074525.000,A,3957.58850,N,11621.05196,E,1.21,289.89,190126,,,A,V*00
$GNVTG,289.89,T,,M,1.21,N,2.25,K,A*26
$GNZDA,074525.000,19,01,2026,00,00*46
$GPTXT,01,01,01,ANTENNA OK*35
$GNGGA,074526.000,3957.58839,N,11621.05122,E,1,10,1.0,84.0,M,-9.9,M,,*67
$GNGLL,3957.58839,N,11621.05122,E,074526.000,A,A*43
$GNGSA,A,3,01,02,03,07,08,17,22,194,195,,,,1.8,1.0,1.5,1*35
$GNGSA,A,3,29,,,,,,,,,,,,1.8,1.0,1.5,4*33
$GPGSV,4,1,13,01,71,126,35,02,52,054,32,03,11,144,15,07,36,202,16,0*60
$GPGSV,4,2,13,08,26,069,24,13,05,293,23,14,51,311,37,17,32,268,37,0*63
$GPGSV,4,3,13,19,10,259,26,22,35,309,37,30,47,240,22,194,62,103,31,0*55
$GPGSV,4,4,13,195,60,126,23,0*68
$BDGSV,2,1,05,07,,,35,26,,,34,29,67,042,34,40,,,37,0*4B
$BDGSV,2,2,05,59,35,147,,0*49
$GNRMC,074526.000,A,3957.58839,N,11621.05122,E,1.53,289.89,190126,,,A,V*06
$GNVTG,289.89,T,,M,1.53,N,2.84,K,A*28
$GNZDA,074526.000,19,01,2026,00,00*45
$GPTXT,01,01,01,ANTENNA OK*35
$GNGGA,074527.000,3957.58815,N,11621.05054,E,1,10,1.0,84.0,M,-9.9,M,,*68
$GNGLL,3957.58815,N,11621.05054,E,074527.000,A,A*4C
$GNGSA,A,3,01,02,03,07,08,17,22,194,195,,,,1.8,1.0,1.5,1*35
$GNGSA,A,3,29,,,,,,,,,,,,1.8,1.0,1.5,4*33
$GPGSV,4,1,13,01,71,126,35,02,52,054,33,03,11,144,15,07,36,202,16,0*61
$GPGSV,4,2,13,08,26,069,24,13,05,293,24,14,51,311,35,17,32,268,33,0*62
$GPGSV,4,3,13,19,10,259,26,22,35,309,36,30,47,240,22,194,62,103,31,0*54
$GPGSV,4,4,13,195,60,126,23,0*68
$BDGSV,2,1,05,07,,,35,26,,,34,29,67,042,34,40,,,37,0*4B
$BDGSV,2,2,05,59,35,147,,0*49
$GNRMC,074527.000,A,3957.58815,N,11621.05054,E,1.09,289.89,190126,,,A,V*06
$GNVTG,289.89,T,,M,1.09,N,2.01,K,A*2A
$GNZDA,074527.000,19,01,2026,00,00*44
$GPTXT,01,01,01,ANTENNA OK*35
$GNGGA,074528.000,3957.58793,N,11621.05030,E,1,10,1.0,84.9,M,-9.9,M,,*6D
$GNGLL,3957.58793,N,11621.05030,E,074528.000,A,A*40
$GNGSA,A,3,01,02,03,07,08,17,22,194,195,,,,1.8,1.0,1.5,1*35
$GNGSA,A,3,29,,,,,,,,,,,,1.8,1.0,1.5,4*33
$GPGSV,4,1,13,01,71,126,34,02,52,054,33,03,11,144,15,07,36,202,16,0*60
$GPGSV,4,2,13,08,26,069,24,13,05,293,24,14,51,311,35,17,32,268,33,0*62
$GPGSV,4,3,13,19,10,259,25,22,35,309,33,30,47,240,22,194,62,103,31,0*52
$GPGSV,4,4,13,195,60,126,23,0*68
$BDGSV,2,1,05,07,,,35,26,,,33,29,67,042,33,40,,,37,0*4B
$BDGSV,2,2,05,59,35,147,,0*49
$GNRMC,074528.000,A,3957.58793,N,11621.05030,E,0.00,289.89,190126,,,A,V*02
$GNVTG,289.89,T,,M,0.00,N,0.00,K,A*21
$GNZDA,074528.000,19,01,2026,00,00*4B
$GPTXT,01,01,01,ANTENNA OK*35
$GNGGA,074529.000,3957.58770,N,11621.05005,E,1,10,1.0,85.7,M,-9.9,M,,*68
$GNGLL,3957.58770,N,11621.05005,E,074529.000,A,A*4A
$GNGSA,A,3,01,02,03,07,08,17,22,194,195,,,,1.8,1.0,1.5,1*35
$GNGSA,A,3,29,,,,,,,,,,,,1.8,1.0,1.5,4*33
$GPGSV,4,1,13,01,71,126,34,02,52,054,33,03,11,144,11,07,36,202,16,0*64
$GPGSV,4,2,13,08,25,069,24,13,05,293,26,14,51,311,34,17,32,268,35,0*64
$GPGSV,4,3,13,19,10,259,25,22,35,309,35,30,47,240,22,194,62,103,30,0*55
$GPGSV,4,4,13,195,60,126,23,0*68
$BDGSV,2,1,05,07,,,35,26,,,33,29,67,042,33,40,,,37,0*4B
$BDGSV,2,2,05,59,35,147,,0*49
$GNRMC,074529.000,A,3957.58770,N,11621.05005,E,0.00,289.89,190126,,,A,V*08
$GNVTG,289.89,T,,M,0.00,N,0.00,K,A*21
$GNZDA,074529.000,19,01,2026,00,00*4A
$GPTXT,01,01,01,ANTENNA OK*35
$GNGGA,074530.000,3957.58750,N,11621.04963,E,1,10,1.0,87.5,M,-9.9,M,,*6A
$GNGLL,3957.58750,N,11621.04963,E,074530.000,A,A*48
$GNGSA,A,3,01,02,03,07,08,17,22,194,195,,,,1.8,1.0,1.5,1*35
$GNGSA,A,3,29,,,,,,,,,,,,1.8,1.0,1.5,4*33
$GPGSV,4,1,13,01,71,126,34,02,52,054,37,03,11,144,11,07,35,202,16,0*63
$GPGSV,4,2,13,08,25,069,24,13,05,293,26,14,51,311,37,17,32,268,35,0*67
$GPGSV,4,3,13,19,10,259,25,22,35,309,35,30,47,240,22,194,62,103,30,0*55
$GPGSV,4,4,13,195,60,126,23,0*68
$BDGSV,2,1,05,07,,,35,26,,,34,29,67,042,33,40,,,37,0*4C
$BDGSV,2,2,05,59,35,147,,0*49
$GNRMC,074530.000,A,3957.58750,N,11621.04963,E,0.00,289.89,190126,,,A,V*0A
$GNVTG,289.89,T,,M,0.00,N,0.00,K,A*21
$GNZDA,074530.000,19,01,2026,00,00*42
$GPTXT,01,01,01,ANTENNA OK*35
$GNGGA,074531.000,3957.58736,N,11621.04920,E,1,10,1.0,89.2,M,-9.9,M,,*65
$GNGLL,3957.58736,N,11621.04920,E,074531.000,A,A*4E
$GNGSA,A,3,01,02,03,07,08,17,22,194,195,,,,1.8,1.0,1.5,1*35
$GNGSA,A,3,29,,,,,,,,,,,,1.8,1.0,1.5,4*33
$GPGSV,4,1,13,01,71,126,35,02,52,054,37,03,11,144,11,07,35,202,16,0*62
$GPGSV,4,2,13,08,25,069,24,13,05,293,26,14,51,311,37,17,32,268,36,0*64
$GPGSV,4,3,13,19,10,259,27,22,35,309,35,30,47,240,23,194,62,103,30,0*56
$GPGSV,4,4,13,195,60,126,23,0*68
$BDGSV,2,1,05,07,,,35,26,,,40,29,67,042,33,40,,,37,0*4F
$BDGSV,2,2,05,59,35,147,,0*49
$GNRMC,074531.000,A,3957.58736,N,11621.04920,E,0.00,289.89,190126,,,A,V*0C
$GNVTG,289.89,T,,M,0.00,N,0.00,K,A*21
$GNZDA,074531.000,19,01,2026,00,00*43
$GPTXT,01,01,01,ANTENNA OK*35
$GNGGA,074532.000,3957.58693,N,11621.04858,E,1,10,1.0,92.4,M,-9.9,M,,*6A
$GNGLL,3957.58693,N,11621.04858,E,074532.000,A,A*4D
$GNGSA,A,3,01,02,03,07,08,17,22,194,195,,,,1.8,1.0,1.5,1*35
$GNGSA,A,3,29,,,,,,,,,,,,1.8,1.0,1.5,4*33
$GPGSV,4,1,13,01,71,126,35,02,52,054,37,03,11,144,11,07,35,202,16,0*62
$GPGSV,4,2,13,08,25,069,24,13,05,292,26,14,51,311,37,17,32,268,36,0*65
$GPGSV,4,3,13,19,10,259,27,22,35,309,36,30,47,240,23,194,62,103,31,0*54
$GPGSV,4,4,13,195,60,126,23,0*68
$BDGSV,2,1,05,07,,,35,26,,,38,29,67,042,33,40,,,36,0*41
$BDGSV,2,2,05,59,35,147,,0*49
$GNRMC,074532.000,A,3957.58693,N,11621.04858,E,0.34,289.89,190126,,,A,V*08
$GNVTG,289.89,T,,M,0.34,N,0.63,K,A*23
$GNZDA,074532.000,19,01,2026,00,00*40
$GPTXT,01,01,01,ANTENNA OK*35
$GNGGA,074533.000,3957.58664,N,11621.04745,E,1,10,1.0,95.1,M,-9.9,M,,*62
$GNGLL,3957.58664,N,11621.04745,E,074533.000,A,A*47
$GNGSA,A,3,01,02,03,07,08,17,22,194,195,,,,1.8,1.0,1.5,1*35
$GNGSA,A,3,29,,,,,,,,,,,,1.8,1.0,1.5,4*33
$GPGSV,4,1,13,01,71,126,36,02,52,054,37,03,11,144,11,07,35,202,16,0*61
$GPGSV,4,2,13,08,25,069,27,13,05,292,26,14,51,311,37,17,32,268,36,0*66
$GPGSV,4,3,13,19,10,259,27,22,35,309,36,30,47,240,23,194,62,103,34,0*51
$GPGSV,4,4,13,195,60,126,23,0*68
$BDGSV,2,1,05,07,,,35,26,,,36,29,67,042,33,40,,,38,0*41
$BDGSV,2,2,05,59,35,147,,0*49
$GNRMC,074533.000,A,3957.58664,N,11621.04745,E,1.85,289.89,190126,,,A,V*09
$GNVTG,289.89,T,,M,1.85,N,3.42,K,A*28
$GNZDA,074533.000,19,01,2026,00,00*41
$GPTXT,01,01,01,ANTENNA OK*35
$GNGGA,074534.000,3957.58616,N,11621.04705,E,1,10,1.0,96.9,M,-9.9,M,,*6F
$GNGLL,3957.58616,N,11621.04705,E,074534.000,A,A*41
$GNGSA,A,3,01,02,03,07,08,17,22,194,195,,,,1.8,1.0,1.5,1*35
$GNGSA,A,3,29,,,,,,,,,,,,1.8,1.0,1.5,4*33
$GPGSV,4,1,13,01,71,126,36,02,52,054,37,03,11,144,11,07,35,202,16,0*61
$GPGSV,4,2,13,08,25,069,27,13,05,292,26,14,51,311,37,17,32,268,35,0*65
$GPGSV,4,3,13,19,10,259,27,22,35,309,37,30,47,240,23,194,62,103,34,0*50
$GPGSV,4,4,13,195,60,126,23,0*68
$BDGSV,2,1,05,07,,,33,26,,,31,29,67,042,33,40,,,36,0*4E
$BDGSV,2,2,05,59,35,147,,0*49
$GNRMC,074534.000,A,3957.58616,N,11621.04705,E,0.00,289.89,190126,,,A,V*03
$GNVTG,289.89,T,,M,0.00,N,0.00,K,A*21
$GNZDA,074534.000,19,01,2026,00,00*46
$GPTXT,01,01,01,ANTENNA OK*35
$GNGGA,074535.000,3957.58577,N,11621.04675,E,1,10,1.0,97.8,M,-9.9,M,,*6C
$GNGLL,3957.58577,N,11621.04675,E,074535.000,A,A*42
$GNGSA,A,3,01,02,03,07,08,17,22,194,195,,,,1.8,1.0,1.5,1*35
$GNGSA,A,3,29,,,,,,,,,,,,1.8,1.0,1.5,4*33
$GPGSV,4,1,13,01,71,126,40,02,52,054,30,03,11,144,11,07,35,202,16,0*67
$GPGSV,4,2,13,08,25,069,30,13,05,292,26,14,51,311,36,17,32,268,35,0*62
$GPGSV,4,3,13,19,10,259,27,22,35,309,37,30,47,240,24,194,62,103,32,0*51
$GPGSV,4,4,13,195,60,126,23,0*68
$BDGSV,2,1,05,07,,,35,26,,,34,29,67,042,32,40,,,36,0*4C
$BDGSV,2,2,05,59,35,147,,0*49
$GNRMC,074535.000,A,3957.58577,N,11621.04675,E,0.00,289.89,190126,,,A,V*00
$GNVTG,289.89,T,,M,0.00,N,0.00,K,A*21
$GNZDA,074535.000,19,01,2026,00,00*47
$GPTXT,01,01,01,ANTENNA OK*35
$GNGGA,074536.000,3957.58548,N,11621.04619,E,1,10,1.0,99.1,M,-9.9,M,,*6E
$GNGLL,3957.58548,N,11621.04619,E,074536.000,A,A*47
$GNGSA,A,3,01,02,03,07,08,17,22,194,195,,,,1.8,1.0,1.5,1*35
$GNGSA,A,3,29,,,,,,,,,,,,1.8,1.0,1.5,4*33
$GPGSV,4,1,13,01,71,126,40,02,52,054,34,03,11,144,11,07,35,202,16,0*63
$GPGSV,4,2,13,08,25,069,26,13,05,292,25,14,51,311,36,17,32,268,33,0*60
$GPGSV,4,3,13,19,10,259,27,22,35,309,35,30,47,240,24,194,62,103,32,0*53
$GPGSV,4,4,13,195,60,126,23,0*68
$BDGSV,2,1,05,07,,,33,26,,,34,29,67,042,32,40,,,36,0*4A
$BDGSV,2,2,05,59,35,147,,0*49
$GNRMC,074536.000,A,3957.58548,N,11621.04619,E,0.00,289.89,190126,,,A,V*05
$GNVTG,289.89,T,,M,0.00,N,0.00,K,A*21
$GNZDA,074536.000,19,01,2026,00,00*44
$GPTXT,01,01,01,ANTENNA OK*35
$GNGGA,074537.000,3957.58528,N,11621.04517,E,1,10,1.0,100.0,M,-9.9,M,,*54
$GNGLL,3957.58528,N,11621.04517,E,074537.000,A,A*4D
$GNGSA,A,3,01,02,03,07,08,17,22,194,195,,,,1.8,1.0,1.5,1*35
$GNGSA,A,3,29,,,,,,,,,,,,1.8,1.0,1.5,4*33
$GPGSV,4,1,13,01,71,126,40,02,52,054,32,03,11,144,11,07,35,202,16,0*65
$GPGSV,4,2,13,08,25,069,26,13,05,292,25,14,51,311,34,17,32,268,33,0*62
$GPGSV,4,3,13,19,10,259,27,22,35,309,30,30,47,240,24,194,62,103,30,0*54
$GPGSV,4,4,13,195,60,126,23,0*68
$BDGSV,2,1,05,07,,,33,26,,,34,29,67,042,33,40,,,36,0*4B
$BDGSV,2,2,05,59,35,147,,0*49
$GNRMC,074537.000,A,3957.58528,N,11621.04517,E,1.95,297.69,190126,,,A,V*03
$GNVTG,297.69,T,,M,1.95,N,3.61,K,A*29
$GNZDA,074537.000,19,01,2026,00,00*45
$GPTXT,01,01,01,ANTENNA OK*35
$GNGGA,074538.000,3957.58520,N,11621.04429,E,1,10,1.0,100.1,M,-9.9,M,,*5E
$GNGLL,3957.58520,N,11621.04429,E,074538.000,A,A*46
$GNGSA,A,3,01,02,03,07,08,17,22,194,195,,,,1.8,1.0,1.5,1*35
$GNGSA,A,3,29,,,,,,,,,,,,1.8,1.0,1.5,4*33
$GPGSV,4,1,13,01,71,126,40,02,52,054,32,03,12,144,11,07,35,202,16,0*66
$GPGSV,4,2,13,08,25,069,28,13,05,292,27,14,51,311,34,17,32,268,32,0*6F
$GPGSV,4,3,13,19,10,259,26,22,35,309,38,30,47,240,24,194,62,103,32,0*5F
$GPGSV,4,4,13,195,60,126,23,0*68
$BDGSV,2,1,05,07,,,33,26,,,33,29,67,042,35,40,,,36,0*4A
$BDGSV,2,2,05,59,35,147,,0*49
$GNRMC,074538.000,A,3957.58520,N,11621.04429,E,2.16,276.36,190126,,,A,V*05
$GNVTG,276.36,T,,M,2.16,N,4.00,K,A*24
$GNZDA,074538.000,19,01,2026,00,00*4A
$GPTXT,01,01,01,ANTENNA OK*35
$GNGGA,074539.000,3957.58490,N,11621.04297,E,1,10,1.0,100.7,M,-9.9,M,,*50
$GNGLL,3957.58490,N,11621.04297,E,074539.000,A,A*4E
$GNGSA,A,3,01,02,03,07,08,17,22,194,195,,,,1.8,1.0,1.5,1*35
$GNGSA,A,3,29,,,,,,,,,,,,1.8,1.0,1.5,4*33
$GPGSV,4,1,13,01,71,126,40,02,52,054,34,03,12,144,11,07,35,202,16,0*60
$GPGSV,4,2,13,08,25,069,31,13,05,292,27,14,51,311,34,17,32,268,32,0*67
$GPGSV,4,3,13,19,10,259,29,22,35,309,33,30,47,240,24,194,62,103,32,0*5B
$GPGSV,4,4,13,195,60,126,23,0*68
$BDGSV,2,1,05,07,,,34,26,,,33,29,67,042,35,40,,,36,0*4D
$BDGSV,2,2,05,59,35,147,,0*49
$GNRMC,074539.000,A,3957.58490,N,11621.04297,E,2.54,280.69,190126,,,A,V*08
$GNVTG,280.69,T,,M,2.54,N,4.70,K,A*26
$GNZDA,074539.000,19,01,2026,00,00*4B
$GPTXT,01,01,01,ANTENNA OK*35
$GNGGA,074540.000,3957.58464,N,11621.04185,E,1,10,1.0,100.8,M,-9.9,M,,*5A
$GNGLL,3957.58464,N,11621.04185,E,074540.000,A,A*4B
$GNGSA,A,3,01,02,03,07,08,17,22,194,195,,,,1.8,1.0,1.5,1*35
$GNGSA,A,3,29,,,,,,,,,,,,1.8,1.0,1.5,4*33
$GPGSV,4,1,13,01,71,126,39,02,52,054,34,03,12,144,11,07,35,202,16,0*6E
$GPGSV,4,2,13,08,25,070,31,13,05,292,27,14,51,311,34,17,32,268,39,0*64
$GPGSV,4,3,13,19,10,259,29,22,35,309,33,30,47,240,24,194,62,103,32,0*5B
$GPGSV,4,4,13,195,60,126,23,0*68
$BDGSV,2,1,05,07,,,34,26,,,33,29,67,042,32,40,,,35,0*49
$BDGSV,2,2,05,59,35,147,,0*49
$GNRMC,074540.000,A,3957.58464,N,11621.04185,E,2.06,275.62,190126,,,A,V*0B
$GNVTG,275.62,T,,M,2.06,N,3.82,K,A*2A
$GNZDA,074540.000,19,01,2026,00,00*45
$GPTXT,01,01,01,ANTENNA OK*35
$GNGGA,074541.000,3957.58466,N,11621.04111,E,1,10,1.0,101.0,M,-9.9,M,,*5D
$GNGLL,3957.58466,N,11621.04111,E,074541.000,A,A*45
$GNGSA,A,3,01,02,03,07,08,17,22,194,195,,,,1.8,1.0,1.5,1*35
$GNGSA,A,3,29,,,,,,,,,,,,1.8,1.0,1.5,4*33
$GPGSV,4,1,13,01,71,126,35,02,52,054,34,03,12,144,11,07,35,202,16,0*62
$GPGSV,4,2,13,08,25,070,30,13,05,292,27,14,51,311,34,17,32,268,36,0*6A
$GPGSV,4,3,13,19,10,259,36,22,35,309,34,30,47,240,24,194,62,103,32,0*52
$GPGSV,4,4,13,195,60,126,23,0*68
$BDGSV,2,1,05,07,,,33,26,,,33,29,67,042,32,40,,,33,0*48
$BDGSV,2,2,05,59,35,147,,0*49
$GNRMC,074541.000,A,3957.58466,N,11621.04111,E,1.58,275.62,190126,,,A,V*0D
$GNVTG,275.62,T,,M,1.58,N,2.93,K,A*23
$GNZDA,074541.000,19,01,2026,00,00*44
$GPTXT,01,01,01,ANTENNA OK*35
$GNGGA,074542.000,3957.58468,N,11621.04014,E,1,10,1.0,100.8,M,-9.9,M,,*5D
$GNGLL,3957.58468,N,11621.04014,E,074542.000,A,A*4C
$GNGSA,A,3,01,02,03,07,08,17,22,194,195,,,,1.8,1.0,1.5,1*35
$GNGSA,A,3,29,,,,,,,,,,,,1.8,1.0,1.5,4*33
$GPGSV,4,1,13,01,71,126,35,02,52,054,33,03,12,144,11,07,35,202,16,0*65
$GPGSV,4,2,13,08,25,070,30,13,05,292,27,14,51,311,38,17,32,268,36,0*66
