2,28,47,080,29,37,53,083,27,0*7E
$BDGSV,4,4,16,39,73,111,16,40,59,189,,43,07,036,,59,36,147,,0*7D
$GNRMC,040152.000,A,3957.54013,N,11621.09085,E,2.91,265.52,200126,,,A,V*09
$GNVTG,265.52,T,,M,2.91,N,5.39,K,A*20
$GNZDA,040152.000,20,01,2026,00,00*4F
$GPTXT,01,01,01,ANTENNA OK*35
$GNGGA,040153.000,3957.54055,N,11621.08944,E,1,11,4.4,79.7,M,-9.9,M,,*68
$GNGLL,3957.54055,N,11621.08944,E,040153.000,A,A*49
$GNGSA,A,3,16,26,27,31,194,195,,,,,,,6.6,4.4,4.9,1*39
$GNGSA,A,3,16,27,28,37,39,,,,,,,,6.6,4.4,4.9,4*3F
$GPGSV,3,1,12,04,42,222,,07,24,310,,08,57,205,,09,42,268,,0*69
$GPGSV,3,2,12,16,54,050,25,18,14,046,,26,25,076,28,27,79,114,30,0*69
$GPGSV,3,3,12,31,21,127,25,194,68,086,27,195,21,141,27,199,43,164,,0*57
$BDGSV,4,1,16,01,34,141,,04,23,126,,06,84,051,07,07,54,205,,0*7C
$BDGSV,4,2,16,09,73,328,,10,40,213,,16,82,066,17,20,12,221,,0*7F
$BDGSV,4,3,16,23,07,101,,27,46,148,22,28,47,080,29,37,53,083,27,0*7E
$BDGSV,4,4,16,39,73,111,16,40,59,189,,43,07,036,,59,36,147,,0*7D
$GNRMC,040153.000,A,3957.54055,N,11621.08944,E,3.40,287.00,200126,,,A,V*09
$GNVTG,287.00,T,,M,3.40,N,6.29,K,A*24
$GNZDA,040153.000,20,01,2026,00,00*4E
$GPTXT,01,01,01,ANTENNA OK*35
$GNGGA,040154.000,3957.54110,N,11621.08830,E,1,12,3.6,78.7,M,-9.9,M,,*6A
$GNGLL,3957.54110,N,11621.08830,E,040154.000,A,A*4C
$GNGSA,A,3,16,26,27,31,194,195,,,,,,,5.5,3.6,4.2,1*37
$GNGSA,A,3,06,16,27,28,37,39,,,,,,,5.5,3.6,4.2,4*37
$GPGSV,3,1,12,04,42,222,,07,24,310,,08,57,205,,09,42,268,,0*69
$GPGSV,3,2,12,16,54,050,25,18,14,046,,26,25,076,28,27,79,114,30,0*69
$GPGSV,3,3,12,31,21,127,25,194,68,086,27,195,21,141,27,199,43,164,,0*57
$BDGSV,4,1,16,01,34,141,,04,23,126,,06,84,051,14,07,54,205,,0*7E
$BDGSV,4,2,16,09,73,328,,10,40,213,,16,82,066,17,20,12,221,,0*7F
$BDGSV,4,3,16,23,07,101,,27,46,148,22,28,47,080,28,37,53,083,27,0*7F
$BDGSV,4,4,16,39,73,111,16,40,59,189,,43,07,036,,59,36,147,,0*7D
$GNRMC,040154.000,A,3957.54110,N,11621.08830,E,2.99,304.80,200126,,,A,V*0B
$GNVTG,304.80,T,,M,2.99,N,5.54,K,A*2A
$GNZDA,040154.000,20,01,2026,00,00*49
$GPTXT,01,01,01,ANTENNA OK*35
$GNGGA,040155.000,3957.54150,N,11621.08771,E,1,12,3.6,78.1,M,-9.9,M,,*63
$GNGLL,3957.54150,N,11621.08771,E,040155.000,A,A*43
$GNGSA,A,3,16,26,27,31,194,195,,,,,,,5.5,3.6,4.2,1*37
$GNGSA,A,3,06,16,27,28,37,39,,,,,,,5.5,3.6,4.2,4*37
$GPGSV,3,1,12,04,42,222,,07,24,310,,08,57,205,,09,42,268,,0*69
$GPGSV,3,2,12,16,54,050,25,18,14,046,,26,25,076,28,27,79,114,30,0*69
$GPGSV,3,3,12,31,21,127,25,194,68,086,27,195,21,141,27,199,43,164,,0*57
$BDGSV,4,1,16,01,34,141,,04,23,126,,06,84,051,14,07,54,205,,0*7E
$BDGSV,4,2,16,09,73,328,,10,40,213,,16,82,066,17,20,12,221,,0*7F
$BDGSV,4,3,16,23,07,101,,27,46,148,22,28,47,080,30,37,53,083,27,0*76
$BDGSV,4,4,16,39,73,111,16,40,59,189,,43,07,036,,59,36,147,,0*7D
$GNRMC,040155.000,A,3957.54150,N,11621.08771,E,2.21,297.53,200126,,,A,V*02
$GNVTG,297.53,T,,M,2.21,N,4.08,K,A*24
$GNZDA,040155.000,20,01,2026,00,00*48
$GPTXT,01,01,01,ANTENNA OK*35
$GNGGA,040156.000,3957.54175,N,11621.08635,E,1,12,3.6,76.3,M,-9.9,M,,*6A
$GNGLL,3957.54175,N,11621.08635,E,040156.000,A,A*46
$GNGSA,A,3,16,26,27,31,194,195,,,,,,,5.6,3.6,4.2,1*34
$GNGSA,A,3,06,16,27,28,37,39,,,,,,,5.6,3.6,4.2,4*34
$GPGSV,3,1,12,04,42,222,,07,24,310,,08,57,205,,09,42,268,,0*69
$GPGSV,3,2,12,16,54,050,25,18,14,046,,26,25,076,28,27,79,114,28,0*60
$GPGSV,3,3,12,31,21,127,25,194,68,086,28,195,21,141,25,199,43,164,,0*5A
$BDGSV,4,1,16,01,34,141,,04,23,126,,06,84,051,14,07,54,205,,0*7E
$BDGSV,4,2,16,09,73,328,,10,40,213,,16,82,066,17,20,12,221,,0*7F
$BDGSV,4,3,16,23,07,101,,27,46,148,22,28,47,080,33,37,53,083,30,0*73
$BDGSV,4,4,16,39,73,111,16,40,59,189,,43,07,036,,59,36,147,,0*7D
$GNRMC,040156.000,A,3957.54175,N,11621.08635,E,3.26,270.28,200126,,,A,V*04
$GNVTG,270.28,T,,M,3.26,N,6.05,K,A*28
$GNZDA,040156.000,20,01,2026,00,00*4B
$GPTXT,01,01,01,ANTENNA OK*35
$GNGGA,040157.000,3957.54182,N,11621.08571,E,1,13,1.3,75.6,M,-9.9,M,,*60
$GNGLL,3957.54182,N,11621.08571,E,040157.000,A,A*4C
$GNGSA,A,3,09,16,26,27,31,194,195,,,,,,2.3,1.3,1.9,1*36
$GNGSA,A,3,06,16,27,28,37,39,,,,,,,2.3,1.3,1.9,4*3F
$GPGSV,3,1,12,04,42,222,,07,24,310,,08,57,205,,09,42,268,17,0*6F
$GPGSV,3,2,12,16,54,050,25,18,14,046,,26,25,076,28,27,79,114,28,0*60
$GPGSV,3,3,12,31,21,127,25,194,68,086,28,195,21,141,25,199,43,164,,0*5A
$BDGSV,4,1,16,01,34,141,,04,23,126,,06,84,051,14,07,54,205,,0*7E
$BDGSV,4,2,16,09,73,328,,10,40,213,,16,82,066,17,20,11,221,,0*7C
$BDGSV,4,3,16,23,07,101,,27,46,148,22,28,47,080,33,37,53,083,30,0*73
$BDGSV,4,4,16,39,73,111,16,40,59,189,,43,07,036,,59,36,147,,0*7D
$GNRMC,040157.000,A,3957.54182,N,11621.08571,E,2.32,298.05,200126,,,A,V*03
$GNVTG,298.05,T,,M,2.32,N,4.31,K,A*20
$GNZDA,040157.000,20,01,2026,00,00*4A
$GPTXT,01,01,01,ANTENNA OK*35
$GNGGA,040158.000,3957.54193,N,11621.08526,E,1,13,1.3,75.4,M,-9.9,M,,*6F
$GNGLL,3957.54193,N,11621.08526,E,040158.000,A,A*41
$GNGSA,A,3,09,16,26,27,31,194,195,,,,,,2.3,1.3,1.9,1*36
$GNGSA,A,3,06,16,27,28,37,39,,,,,,,2.3,1.3,1.9,4*3F
$GPGSV,3,1,12,04,42,222,,07,24,310,,08,57,205,,09,42,268,18,0*60
$GPGSV,3,2,12,16,54,050,23,18,14,046,,26,25,076,28,27,79,114,28,0*66
$GPGSV,3,3,12,31,21,127,25,194,68,086,30,195,21,141,25,199,43,164,,0*53
$BDGSV,4,1,16,01,34,141,,04,23,126,,06,84,051,14,07,54,205,,0*7E
$BDGSV,4,2,16,09,73,328,,10,40,213,,16,82,066,14,20,11,221,,0*7F
$BDGSV,4,3,16,23,07,101,,27,46,148,22,28,47,080,33,37,53,083,30,0*73
$BDGSV,4,4,16,39,73,111,16,40,59,189,,43,07,036,,59,36,147,,0*7D
$GNRMC,040158.000,A,3957.54193,N,11621.08526,E,2.45,290.61,200126,,,A,V*04
$GNVTG,290.61,T,,M,2.45,N,4.54,K,A*29
$GNZDA,040158.000,20,01,2026,00,00*45
$GPTXT,01,01,01,ANTENNA OK*35
$GNGGA,040159.000,3957.54191,N,11621.08503,E,1,13,1.3,75.5,M,-9.9,M,,*6A
$GNGLL,3957.54191,N,11621.08503,E,040159.000,A,A*45
$GNGSA,A,3,09,16,26,27,31,194,195,,,,,,2.3,1.3,1.9,1*36
$GNGSA,A,3,06,16,27,28,37,39,,,,,,,2.3,1.3,1.9,4*3F
$GPGSV,3,1,12,04,42,222,,07,24,310,,08,57,205,,09,42,268,18,0*60
$GPGSV,3,2,12,16,54,050,23,18,14,046,,26,25,076,26,27,79,114,28,0*68
$GPGSV,3,3,12,31,21,127,25,194,68,086,30,195,21,141,25,199,43,164,,0*53
$BDGSV,4,1,16,01,34,141,,04,23,126,,06,84,051,14,07,54,205,,0*7E
$BDGSV,4,2,16,09,73,328,,10,40,213,,16,82,066,14,20,11,221,03,0*7C
$BDGSV,4,3,16,23,07,101,,27,46,148,22,28,47,080,32,37,53,083,30,0*72
$BDGSV,4,4,16,39,73,111,16,40,59,189,,43,07,036,,59,36,147,,0*7D
$GNRMC,040159.000,A,3957.54191,N,11621.08503,E,1.67,290.61,200126,,,A,V*03
$GNVTG,290.61,T,,M,1.67,N,3.10,K,A*2D
$GNZDA,040159.000,20,01,2026,00,00*44
$GPTXT,01,01,01,ANTENNA OK*35
$GNGGA,040200.000,3957.54218,N,11621.08422,E,1,13,1.3,74.6,M,-9.9,M,,*67
$GNGLL,3957.54218,N,11621.08422,E,040200.000,A,A*4A
$GNGSA,A,3,09,16,26,27,31,194,195,,,,,,2.3,1.3,1.9,1*36
$GNGSA,A,3,06,16,27,28,37,39,,,,,,,2.3,1.3,1.9,4*3F
$GPGSV,3,1,12,04,42,222,,07,24,310,,08,57,205,,09,42,268,18,0*60
$GPGSV,3,2,12,16,54,050,23,18,14,046,,26,25,076,26,27,79,114,28,0*68
$GPGSV,3,3,12,31,21,127,25,194,68,086,30,195,21,141,25,199,43,164,,0*53
$BDGSV,4,1,16,01,34,141,,04,23,126,,06,84,051,14,07,54,205,,0*7E
$BDGSV,4,2,16,09,73,328,,10,40,213,06,16,82,066,14,20,11,221,03,0*7A
$BDGSV,4,3,16,23,07,101,,27,46,148,22,28,47,080,32,37,53,083,30,0*72
$BDGSV,4,4,16,39,73,111,16,40,59,189,,43,07,036,,59,36,147,,0*7D
$GNRMC,040200.000,A,3957.54218,N,11621.08422,E,1.46,290.61,200126,,,A,V*0F
$GNVTG,290.61,T,,M,1.46,N,2.70,K,A*29
$GNZDA,040200.000,20,01,2026,00,00*4B
$GPTXT,01,01,01,ANTENNA OK*35
$GNGGA,040201.000,3957.54237,N,11621.08323,E,1,13,1.3,73.3,M,-9.9,M,,*6F
$GNGLL,3957.54237,N,11621.08323,E,040201.000,A,A*40
$GNGSA,A,3,09,16,26,27,31,194,195,,,,,,2.3,1.3,1.9,1*36
$GNGSA,A,3,06,16,27,28,37,39,,,,,,,2.3,1.3,1.9,4*3F
$GPGSV,3,1,12,04,42,222,,07,24,310,,08,57,205,,09,42,268,18,0*60
$GPGSV,3,2,12,16,54,050,23,18,14,046,,26,25,076,26,27,79,114,28,0*68
$GPGSV,3,3,12,31,21,127,25,194,68,086,30,195,21,141,25,199,43,164,,0*53
$BDGSV,4,1,16,01,34,141,,04,23,126,,06,84,051,14,07,54,205,,0*7E
$BDGSV,4,2,16,09,73,328,,10,40,213,06,16,82,066,14,20,11,221,03,0*7A
$BDGSV,4,3,16,23,07,101,,27,46,148,22,28,47,080,32,37,53,083,29,0*7A
$BDGSV,4,4,16,39,73,111,16,40,59,189,,43,07,036,,59,36,147,,0*7D
$GNRMC,040201.000,A,3957.54237,N,11621.08323,E,1.87,290.61,200126,,,A,V*08
$GNVTG,290.61,T,,M,1.87,N,3.47,K,A*21
$GNZDA,040201.000,20,01,2026,00,00*4A
$GPTXT,01,01,01,ANTENNA OK*35
$GNGGA,040202.000,3957.54243,N,11621.08293,E,1,14,1.2,72.9,M,-9.9,M,,*68
$GNGLL,3957.54243,N,11621.08293,E,040202.000,A,A*4A
$GNGSA,A,3,09,16,26,27,31,194,195,,,,,,2.2,1.2,1.8,1*37
$GNGSA,A,3,06,10,16,27,28,37,39,,,,,,2.2,1.2,1.8,4*3F
$GPGSV,3,1,12,04,42,222,,07,24,310,,08,57,205,,09,42,268,18,0*60
$GPGSV,3,2,12,16,54,050,23,18,14,046,,26,25,076,26,27,79,114,28,0*68
$GPGSV,3,3,12,31,21,127,25,194,68,086,30,195,21,141,25,199,43,164,,0*53
$BDGSV,4,1,16,01,34,141,,04,23,126,,06,84,052,14,07,54,205,,0*7D
$BDGSV,4,2,16,09,74,328,,10,40,213,16,16,82,066,14,20,11,221,03,0*7C
$BDGSV,4,3,16,23,07,101,,27,46,148,22,28,47,080,31,37,53,083,29,0*79
$BDGSV,4,4,16,39,73,111,16,40,59,189,,43,07,036,,59,36,147,,0*7D
$GNRMC,040202.000,A,3957.54243,N,11621.08293,E,1.57,290.61,200126,,,A,V*0F
$GNVTG,290.61,T,,M,1.57,N,2.91,K,A*26
$GNZDA,040202.000,20,01,2026,00,00*49
$GPTXT,01,01,01,ANTENNA OK*35
$GNGGA,040203.000,3957.54260,N,11621.08243,E,1,13,1.2,72.8,M,-9.9,M,,*63
$GNGLL,3957.54260,N,11621.08243,E,040203.000,A,A*47
$GNGSA,A,3,09,16,26,27,31,194,195,,,,,,2.2,1.2,1.8,1*37
$GNGSA,A,3,06,10,27,28,37,39,,,,,,,2.2,1.2,1.8,4*38
$GPGSV,3,1,12,04,42,222,,07,24,310,,08,57,205,,09,42,268,18,0*60
$GPGSV,3,2,12,16,54,050,23,18,14,046,,26,25,076,26,27,79,114,28,0*68
$GPGSV,3,3,12,31,21,127,25,194,68,086,29,195,21,141,25,199,43,164,,0*5B
$BDGSV,4,1,16,01,34,141,,04,23,126,,06,84,052,14,07,54,205,,0*7D
$BDGSV,4,2,16,09,74,328,,10,40,213,16,16,82,066,05,20,11,221,03,0*7C
$BDGSV,4,3,16,23,07,101,,27,46,148,22,28,47,080,31,37,53,083,29,0*79
$BDGSV,4,4,16,39,73,111,13,40,59,189,,43,07,036,,59,36,147,,0*78
$GNRMC,040203.000,A,3957.54260,N,11621.08243,E,1.80,290.61,200126,,,A,V*08
$GNVTG,290.61,T,,M,1.80,N,3.34,K,A*22
$GNZDA,040203.000,20,01,2026,00,00*48
$GPTXT,01,01,01,ANTENNA OK*35
$GNGGA,040204.000,3957.54289,N,11621.08188,E,1,14,1.2,72.6,M,-9.9,M,,*6E
$GNGLL,3957.54289,N,11621.08188,E,040204.000,A,A*43
$GNGSA,A,3,09,16,26,27,31,194,195,,,,,,1.9,1.2,1.4,1*33
$GNGSA,A,3,06,10,20,27,28,37,39,,,,,,1.9,1.2,1.4,4*3E
$GPGSV,3,1,12,04,42,222,,07,24,310,,08,57,205,,09,42,268,18,0*60
$GPGSV,3,2,12,16,54,050,23,18,14,046,,26,25,076,27,27,79,114,28,0*69
$GPGSV,3,3,12,31,21,127,25,194,68,086,29,195,21,141,25,199,43,164,,0*5B
$BDGSV,4,1,16,01,34,141,,04,23,126,,06,84,052,14,07,54,205,,0*7D
$BDGSV,4,2,16,09,74,328,,10,40,213,16,16,82,066,05,20,11,221,15,0*7B
$BDGSV,4,3,16,23,07,101,,27,46,148,22,28,47,080,31,37,53,083,29,0*79
$BDGSV,4,4,16,39,73,111,13,40,59,189,,43,07,036,,59,36,147,,0*78
$GNRMC,040204.000,A,3957.54289,N,11621.08188,E,2.09,310.52,200126,,,A,V*07
$GNVTG,310.52,T,,M,2.09,N,3.87,K,A*21
$GNZDA,040204.000,20,01,2026,00,00*4F
$GPTXT,01,01,01,ANTENNA OK*35
$GNGGA,040205.000,3957.54331,N,11621.08179,E,1,13,1.2,72.1,M,-9.9,M,,*63
$GNGLL,3957.54331,N,11621.08179,E,040205.000,A,A*4E
$GNGSA,A,3,09,16,26,27,31,194,195,,,,,,1.9,1.2,1.4,1*33
$GNGSA,A,3,06,20,27,28,37,39,,,,,,,1.9,1.2,1.4,4*3F
$GPGSV,3,1,12,04,42,222,,07,24,310,,08,57,205,,09,42,268,18,0*60
$GPGSV,3,2,12,16,54,050,23,18,14,046,,26,25,076,27,27,79,113,28,0*6E
$GPGSV,3,3,12,31,21,127,21,194,68,086,29,195,21,141,25,199,43,164,,0*5F
$BDGSV,4,1,16,01,34,141,,04,23,126,,06,84,052,14,07,54,205,,0*7D
$BDGSV,4,2,16,09,74,328,,10,40,213,,16,82,066,05,20,11,221,15,0*7C
$BDGSV,4,3,16,23,07,101,,27,46,148,22,28,47,080,31,37,53,083,29,0*79
$BDGSV,4,4,16,39,73,111,13,40,59,189,,43,07,036,,59,36,147,,0*78
$GNRMC,040205.000,A,3957.54331,N,11621.08179,E,1.52,310.52,200126,,,A,V*07
$GNVTG,310.52,T,,M,1.52,N,2.81,K,A*2B
$GNZDA,040205.000,20,01,2026,00,00*4E
$GPTXT,01,01,01,ANTENNA OK*35
$GNGGA,040206.000,3957.54378,N,11621.08156,E,1,13,1.2,71.1,M,-9.9,M,,*63
$GNGLL,3957.54378,N,11621.08156,E,040206.000,A,A*4D
$GNGSA,A,3,09,16,26,27,31,194,195,,,,,,1.9,1.2,1.4,1*33
$GNGSA,A,3,06,20,27,28,37,39,,,,,,,1.9,1.2,1.4,4*3F
$GPGSV,3,1,12,04,42,222,,07,24,310,,08,57,205,,09,42,268,18,0*60
$GPGSV,3,2,12,16,54,050,23,18,14,046,,26,25,076,27,27,79,113,28,0*6E
$GPGSV,3,3,12,31,21,127,21,194,68,086,29,195,21,141,25,199,43,164,,0*5F
$BDGSV,4,1,16,01,34,141,,04,23,126,,06,84,052,14,07,54,205,,0*7D
$BDGSV,4,2,16,09,74,328,,10,40,213,,16,82,066,05,20,11,221,15,0*7C
$BDGSV,4,3,16,23,07,101,,27,46,148,20,28,47,080,31,37,53,083,30,0*73
$BDGSV,4,4,16,39,73,111,13,40,59,189,,43,07,036,,59,36,147,,0*78
$GNRMC,040206.000,A,3957.54378,N,11621.08156,E,1.58,310.52,200126,,,A,V*0E
$GNVTG,310.52,T,,M,1.58,N,2.92,K,A*23
$GNZDA,040206.000,20,01,2026,00,00*4D
$GPTXT,01,01,01,ANTENNA OK*35
$GNGGA,040207.000,3957.54429,N,11621.08109,E,1,13,1.2,70.6,M,-9.9,M,,*6D
$GNGLL,3957.54429,N,11621.08109,E,040207.000,A,A*45
$GNGSA,A,3,09,16,26,27,31,194,195,,,,,,1.9,1.2,1.4,1*33
$GNGSA,A,3,06,20,27,28,37,39,,,,,,,1.9,1.2,1.4,4*3F
$GPGSV,3,1,12,04,42,222,,07,24,310,,08,57,205,,09,42,268,18,0*60
$GPGSV,3,2,12,16,54,050,23,18,14,046,,26,25,076,27,27,79,113,27,0*61
$GPGSV,3,3,12,31,21,127,21,194,68,086,29,195,21,141,25,199,43,164,,0*5F
$BDGSV,4,1,16,01,34,141,,04,23,126,,06,84,052,14,07,54,205,,0*7D
$BDGSV,4,2,16,09,74,328,,10,40,213,,16,82,066,05,20,11,221,15,0*7C
$BDGSV,4,3,16,23,07,101,,27,46,148,20,28,47,080,31,37,53,083,30,0*73
$BDGSV,4,4,16,39,73,111,13,40,59,189,,43,07,036,,59,36,147,,0*78
$GNRMC,040207.000,A,3957.54429,N,11621.08109,E,1.72,310.52,200126,,,A,V*0E
$GNVTG,310.52,T,,M,1.72,N,3.19,K,A*29
$GNZDA,040207.000,20,01,2026,00,00*4C
$GPTXT,01,01,01,ANTENNA OK*35
$GNGGA,040208.000,3957.54438,N,11621.08106,E,1,13,1.2,70.3,M,-9.9,M,,*68
$GNGLL,3957.54438,N,11621.08106,E,040208.000,A,A*45
$GNGSA,A,3,09,16,26,27,31,194,195,,,,,,1.9,1.2,1.4,1*33
$GNGSA,A,3,06,20,27,28,37,39,,,,,,,1.9,1.2,1.4,4*3F
$GPGSV,3,1,12,04,42,222,,07,24,310,,08,57,205,,09,42,268,18,0*60
$GPGSV,3,2,12,16,54,050,23,18,14,046,,26,25,076,27,27,79,113,27,0*61
$GPGSV,3,3,12,31,21,127,21,194,68,086,29,195,21,141,25,199,43,164,,0*5F
$BDGSV,4,1,16,01,34,141,,04,23,126,,06,84,052,10,07,54,205,,0*79
$BDGSV,4,2,16,09,74,328,,10,40,213,,16,82,066,05,20,11,221,15,0*7C
$BDGSV,4,3,16,23,07,101,,27,46,148,20,28,47,080,31,37,53,083,30,0*73
$BDGSV,4,4,16,39,73,111,13,40,59,189,,43,07,036,,59,36,147,,0*78
$GNRMC,040208.000,A,3957.54438,N,11621.08106,E,0.36,310.52,200126,,,A,V*0F
$GNVTG,310.52,T,,M,0.36,N,0.66,K,A*23
$GNZDA,040208.000,20,01,2026,00,00*43
$GPTXT,01,01,01,ANTENNA OK*35
$GNGGA,040209.000,3957.54451,N,11621.08072,E,1,12,1.3,69.7,M,-9.9,M,,*68
$GNGLL,3957.54451,N,11621.08072,E,040209.000,A,A*49
$GNGSA,A,3,09,16,26,27,31,194,195,,,,,,2.3,1.3,1.9,1*36
$GNGSA,A,3,06,27,28,37,39,,,,,,,,2.3,1.3,1.9,4*38
$GPGSV,3,1,12,04,42,222,,07,24,310,,08,57,205,,09,42,268,18,0*60
$GPGSV,3,2,12,16,54,050,23,18,14,046,,26,25,076,27,27,79,113,27,0*61
$GPGSV,3,3,12,31,21,127,21,194,68,086,29,195,21,141,25,199,43,164,,0*5F
$BDGSV,4,1,16,01,34,141,,04,23,126,,06,84,052,10,07,54,205,,0*79
$BDGSV,4,2,16,09,74,328,,10,40,213,,16,82,066,05,20,11,221,05,0*7D
$BDGSV,4,3,16,23,07,101,,27,46,148,20,28,47,080,31,37,53,083,30,0*73
$BDGSV,4,4,16,39,73,111,13,40,59,189,,43,07,036,,59,36,147,,0*78
$GNRMC,040209.000,A,3957.54451,N,11621.08072,E,1.28,310.52,200126,,,A,V*0D
$GNVTG,310.52,T,,M,1.28,N,2.37,K,A*2B
$GNZDA,040209.000,20,01,2026,00,00*42
$GPTXT,01,01,01,ANTENNA OK*35
$GNGGA,040210.000,3957.54471,N,11621.08012,E,1,12,1.3,68.8,M,-9.9,M,,*6A
$GNGLL,3957.54471,N,11621.08012,E,040210.000,A,A*45
$GNGSA,A,3,09,16,26,27,31,194,195,,,,,,2.3,1.3,1.9,1*36
$GNGSA,A,3,06,27,28,37,39,,,,,,,,2.3,1.3,1.9,4*38
$GPGSV,3,1,12,04,42,222,,07,24,310,,08,57,205,,09,42,268,18,0*60
$GPGSV,3,2,12,16,54,050,23,18,14,046,,26,25,076,27,27,79,113,27,0*61
$GPGSV,3,3,12,31,21,127,21,194,68,086,29,195,21,141,25,199,43,164,,0*5F
$BDGSV,4,1,16,01,34,141,,04,23,126,,06,84,052,10,07,54,205,,0*79
$BDGSV,4,2,16,09,74,328,,10,40,213,,16,82,067,05,20,11,221,05,0*7C
$BDGSV,4,3,16,23,07,101,,27,46,148,20,28,47,080,30,37,53,083,29,0*7A
$BDGSV,4,4,16,39,73,111,13,40,59,189,,43,07,036,,59,36,147,,0*78
$GNRMC,040210.000,A,3957.54471,N,11621.08012,E,1.10,310.52,200126,,,A,V*0A
$GNVTG,310.52,T,,M,1.10,N,2.03,K,A*27
$GNZDA,040210.000,20,01,2026,00,00*4A
$GPTXT,01,01,01,ANTENNA OK*35
$GNGGA,040211.000,3957.54486,N,11621.07963,E,1,12,1.3,68.2,M,-9.9,M,,*69
$GNGLL,3957.54486,N,11621.07963,E,040211.000,A,A*4C
$GNGSA,A,3,09,16,26,27,31,194,195,,,,,,2.3,1.3,1.9,1*36
$GNGSA,A,3,06,27,28,37,39,,,,,,,,2.3,1.3,1.9,4*38
$GPGSV,3,1,12,04,42,222,,07,24,310,,08,57,205,,09,42,268,18,0*60
$GPGSV,3,2,12,16,54,050,23,18,14,046,,26,25,076,26,27,79,113,27,0*60
$GPGSV,3,3,12,31,21,127,18,194,68,086,29,195,21,141,25,199,43,164,,0*55
$BDGSV,4,1,16,01,34,141,,04,23,126,,06,84,052,10,07,54,205,,0*79
$BDGSV,4,2,16,09,74,328,,10,40,213,03,16,82,067,05,20,11,221,,0*7A
$BDGSV,4,3,16,23,07,101,,27,46,148,20,28,47,080,30,37,53,083,29,0*7A
$BDGSV,4,4,16,39,73,111,13,40,59,189,,43,07,036,,59,36,147,,0*78
$GNRMC,040211.000,A,3957.54486,N,11621.07963,E,1.86,310.52,200126,,,A,V*0C
$GNVTG,310.52,T,,M,1.86,N,3.45,K,A*2B
$GNZDA,040211.000,20,01,2026,00,00*4B
$GPTXT,01,01,01,ANTENNA OK*35
$GNGGA,040212.000,3957.54529,N,11621.07898,E,1,12,1.3,68.0,M,-9.9,M,,*69
$GNGLL,3957.54529,N,11621.07898,E,040212.000,A,A*4E
$GNGSA,A,3,09,16,26,27,31,194,195,,,,,,2.2,1.3,1.9,1*37
$GNGSA,A,3,10,27,28,37,39,,,,,,,,2.2,1.3,1.9,4*3E
$GPGSV,3,1,12,04,42,222,,07,24,310,,08,57,205,,09,42,268,18,0*60
$GPGSV,3,2,12,16,54,050,23,18,14,046,,26,25,076,26,27,79,113,27,0*60
$GPGSV,3,3,12,31,21,127,18,194,68,086,29,195,21,141,25,199,43,164,,0*55
$BDGSV,4,1,16,01,34,141,,04,23,126,,06,84,052,10,07,54,205,,0*79
$BDGSV,4,2,16,09,74,328,,10,40,213,09,16,82,067,05,20,11,221,,0*70
$BDGSV,4,3,16,23,07,101,,27,46,148,20,28,47,080,30,37,53,083,31,0*73
$BDGSV,4,4,16,39,73,111,13,40,59,189,,43,07,036,,59,36,147,,0*78
$GNRMC,040212.000,A,3957.54529,N,11621.07898,E,2.36,308.78,200126,,,A,V*07
$GNVTG,308.78,T,,M,2.36,N,4.36,K,A*21
$GNZDA,040212.000,20,01,2026,00,00*48
$GPTXT,01,01,01,ANTENNA OK*35
$GNGGA,040213.000,3957.54558,N,11621.07844,E,1,12,1.3,67.7,M,-9.9,M,,*67
$GNGLL,3957.54558,N,11621.07844,E,040213.000,A,A*48
$GNGSA,A,3,09,16,26,27,31,194,195,,,,,,2.2,1.3,1.9,1*37
$GNGSA,A,3,10,27,28,37,39,,,,,,,,2.2,1.3,1.9,4*3E
$GPGSV,3,1,12,04,42,222,,07,24,310,,08,57,205,,09,42,268,18,0*60
$GPGSV,3,2,12,16,54,050,23,18,14,046,,26,25,076,28,27,79,113,27,0*6E
$GPGSV,3,3,12,31,21,127,18,194,68,086,29,195,21,141,25,199,43,164,,0*55
$BDGSV,4,1,16,01,34,141,,04,23,126,,06,84,052,03,07,54,205,,0*7B
$BDGSV,4,2,16,09,74,328,,10,40,213,09,16,82,067,05,20,11,221,,0*70
$BDGSV,4,3,16,23,07,101,,27,46,148,20,28,47,080,31,37,53,083,31,0*72
$BDGSV,4,4,16,39,73,111,13,40,59,189,,43,07,036,,59,36,147,,0*78
$GNRMC,040213.000,A,3957.54558,N,11621.07844,E,1.49,308.78,200126,,,A,V*0A
$GNVTG,308.78,T,,M,1.49,N,2.76,K,A*28
$GNZDA,040213.000,20,01,2026,00,00*49
$GPTXT,01,01,01,ANTENNA OK*35
$GNGGA,040214.000,3957.54561,N,11621.07759,E,1,13,1.2,67.5,M,-9.9,M,,*6B
$GNGLL,3957.54561,N,11621.07759,E,040214.000,A,A*46
$GNGSA,A,3,09,16,26,27,31,194,195,,,,,,2.2,1.2,1.8,1*37
$GNGSA,A,3,01,10,27,28,37,39,,,,,,,2.2,1.2,1.8,4*3F
$GPGSV,3,1,12,04,42,222,,07,24,310,,08,57,205,,09,42,268,18,0*60
$GPGSV,3,2,12,16,54,050,23,18,14,046,,26,25,076,28,27,79,113,27,0*6E
$GPGSV,3,3,12,31,21,127,18,194,68,086,29,195,21,141,25,199,43,164,,0*55
$BDGSV,4,1,16,01,34,141,22,04,23,126,,06,84,052,03,07,54,205,,0*7B
$BDGSV,4,2,16,09,74,328,,10,40,213,09,16,82,067,05,20,11,221,,0*70
$BDGSV,4,3,16,23,07,101,,27,46,148,20,28,47,080,31,37,53,083,31,0*72
$BDGSV,4,4,16,39,73,111,09,40,59,189,,43,07,036,,59,36,147,,0*73
$GNRMC,040214.000,A,3957.54561,N,11621.07759,E,3.13,268.40,200126,,,A,V*05
$GNVTG,268.40,T,,M,3.13,N,5.79,K,A*21
$GNZDA,040214.000,20,01,2026,00,00*4E
$GPTXT,01,01,01,ANTENNA OK*35
$GNGGA,040215.000,3957.54578,N,11621.07681,E,1,13,1.2,67.3,M,-9.9,M,,*60
$GNGLL,3957.54578,N,11621.07681,E,040215.000,A,A*4B
$GNGSA,A,3,09,16,26,27,31,194,195,,,,,,2.2,1.2,1.8,1*37
$GNGSA,A,3,01,10,27,28,37,39,,,,,,,2.2,1.2,1.8,4*3F
$GPGSV,3,1,12,04,42,222,,07,24,310,,08,57,205,,09,42,268,18,0*60
$GPGSV,3,2,12,16,54,050,24,18,14,046,,26,25,076,28,27,79,113,27,0*69
$GPGSV,3,3,12,31,21,127,18,194,68,086,29,195,21,141,25,199,43,164,,0*55
$BDGSV,4,1,16,01,34,141,22,04,23,126,,06,84,052,03,07,54,205,,0*7B
$BDGSV,4,2,16,09,74,328,,10,40,213,09,16,82,067,05,20,11,221,,0*70
$BDGSV,4,3,16,23,07,101,,27,46,148,20,28,47,080,31,37,53,083,31,0*72
$BDGSV,4,4,16,39,73,111,09,40,59,189,,43,07,036,,59,36,147,,0*73
$GNRMC,040215.000,A,3957.54578,N,11621.07681,E,1.87,268.40,200126,,,A,V*07
$GNVTG,268.40,T,,M,1.87,N,3.47,K,A*25
$GNZDA,040215.000,20,01,2026,00,00*4F
$GPTXT,01,01,01,ANTENNA OK*35
$GNGGA,040216.000,3957.54596,N,11621.07631,E,1,13,1.2,66.7,M,-9.9,M,,*6D
$GNGLL,3957.54596,N,11621.07631,E,040216.000,A,A*43
$GNGSA,A,3,09,16,26,27,31,194,195,,,,,,2.2,1.2,1.8,1*37
$GNGSA,A,3,01,10,27,28,37,39,,,,,,,2.2,1.2,1.8,4*3F
$GPGSV,3,1,12,04,42,222,,07,24,310,,08,57,205,,09,42,268,17,0*6F
$GPGSV,3,2,12,16,54,050,24,18,14,046,,26,25,076,28,27,79,113,27,0*69
$GPGSV,3,3,12,31,21,127,18,194,68,086,29,195,21,141,25,199,43,164,,0*55
$BDGSV,4,1,16,01,34,141,22,04,23,126,,06,84,052,03,07,54,205,,0*7B
$BDGSV,4,2,16,09,74,328,,10,40,213,09,16,82,067,05,20,11,221,,0*70
$BDGSV,4,3,16,23,07,101,,27,46,148,20,28,47,080,31,37,53,083,31,0*72
$BDGSV,4,4,16,39,73,111,09,40,59,189,,43,07,036,,59,36,147,,0*73
$GNRMC,040216.000,A,3957.54596,N,11621.07631,E,1.14,268.40,200126,,,A,V*05
$GNVTG,268.40,T,,M,1.14,N,2.11,K,A*2D
$GNZDA,040216.000,20,01,2026,00,00*4C
$GPTXT,01,01,01,ANTENNA OK*35
$GNGGA,040217.000,3957.54616,N,11621.07601,E,1,13,1.2,66.2,M,-9.9,M,,*61
$GNGLL,3957.54616,N,11621.07601,E,040217.000,A,A*4A
$GNGSA,A,3,09,16,26,27,31,194,195,,,,,,2.2,1.2,1.8,1*37
$GNGSA,A,3,01,10,27,28,37,39,,,,,,,2.2,1.2,1.8,4*3F
$GPGSV,3,1,12,04,42,222,,07,24,310,,08,57,205,,09,42,268,17,0*6F
$GPGSV,3,2,12,16,54,050,24,18,14,046,,26,25,076,28,27,79,113,27,0*69
$GPGSV,3,3,12,31,21,127,18,194,68,086,30,195,21,141,25,199,43,164,,0*5D
$BDGSV,4,1,16,01,34,141,22,04,23,126,,06,84,052,03,07,54,205,,0*7B
$BDGSV,4,2,16,09,74,328,,10,40,213,09,16,82,067,05,20,11,221,,0*70
$BDGSV,4,3,16,23,07,101,,27,46,148,20,28,47,080,31,37,53,083,31,0*72
$BDGSV,4,4,16,39,73,111,09,40,59,189,,43,07,036,,59,36,147,,0*73
$GNRMC,040217.000,A,3957.54616,N,11621.07601,E,1.04,268.40,200126,,,A,V*0D
$GNVTG,268.40,T,,M,1.04,N,1.93,K,A*25
$GNZDA,040217.000,20,01,2026,00,00*4D
$GPTXT,01,01,01,ANTENNA OK*35
$GNGGA,040218.000,3957.54650,N,11621.07538,E,1,12,1.3,65.8,M,-9.9,M,,*6C
$GNGLL,3957.54650,N,11621.07538,E,040218.000,A,A*4E
$GNGSA,A,3,09,16,26,27,31,194,195,,,,,,2.3,1.3,1.9,1*36
$GNGSA,A,3,01,27,28,37,39,,,,,,,,2.3,1.3,1.9,4*3F
$GPGSV,3,1,12,04,42,222,,07,24,310,,08,57,205,,09,42,268,17,0*6F
$GPGSV,3,2,12,16,54,050,24,18,14,046,,26,25,076,28,27,79,113,27,0*69
$GPGSV,3,3,12,31,21,127,15,194,68,086,30,195,21,141,25,199,43,164,,0*50
$BDGSV,4,1,16,01,34,141,22,04,23,126,,06,84,052,03,07,54,205,,0*7B
$BDGSV,4,2,16,09,74,328,,10,40,213,,16,82,067,08,20,11,221,,0*74
$BDGSV,4,3,16,23,07,101,,27,46,148,20,28,47,080,31,37,53,083,31,0*72
$BDGSV,4,4,16,39,73,111,09,40,59,189,,43,07,036,,59,36,147,,0*73
$GNRMC,040218.000,A,3957.54650,N,11621.07538,E,1.62,268.40,200126,,,A,V*09
$GNVTG,268.40,T,,M,1.62,N,3.00,K,A*2D
$GNZDA,040218.000,20,01,2026,00,00*42
$GPTXT,01,01,01,ANTENNA OK*35
$GNGGA,040219.000,3957.54674,N,11621.07456,E,1,12,1.3,65.7,M,-9.9,M,,*6D
$GNGLL,3957.54674,N,11621.07456,E,040219.000,A,A*40
$GNGSA,A,3,09,16,26,27,31,194,195,,,,,,2.3,1.3,1.9,1*36
$GNGSA,A,3,01,27,28,37,39,,,,,,,,2.3,1.3,1.9,4*3F
$GPGSV,3,1,12,04,42,222,,07,24,310,,08,57,205,,09,42,268,17,0*6F
$GPGSV,3,2,12,16,54,050,24,18,14,046,,26,25,076,28,27,79,113,27,0*69
$GPGSV,3,3,12,31,21,127,15,194,68,086,28,195,21,141,25,199,43,164,,0*59
$BDGSV,4,1,16,01,34,141,22,04,23,126,,06,84,052,03,07,54,205,,0*7B
$BDGSV,4,2,16,09,74,328,,10,40,213,,16,82,067,08,20,11,221,,0*74
$BDGSV,4,3,16,23,07,101,,27,46,148,20,28,47,080,29,37,53,083,31,0*7B
$BDGSV,4,4,16,39,73,111,09,40,59,189,,43,07,036,,59,36,147,,0*73
$GNRMC,040219.000,A,3957.54674,N,11621.07456,E,2.17,291.78,200126,,,A,V*0B
$GNVTG,291.78,T,,M,2.17,N,4.02,K,A*24
$GNZDA,040219.000,20,01,2026,00,00*43
$GPTXT,01,01,01,ANTENNA OK*35
$GNGGA,040220.000,3957.54711,N,11621.07389,E,1,13,1.2,65.7,M,-9.9,M,,*60
$GNGLL,3957.54711,N,11621.07389,E,040220.000,A,A*4D
$GNGSA,A,3,08,09,16,26,27,31,194,195,,,,,2.2,1.2,1.8,1*3F
$GNGSA,A,3,01,27,28,37,39,,,,,,,,2.2,1.2,1.8,4*3E
$GPGSV,3,1,12,04,42,222,,07,24,310,,08,57,205,17,09,42,268,17,0*69
$GPGSV,3,2,12,16,54,050,24,18,14,046,,26,25,076,28,27,79,113,27,0*69
$GPGSV,3,3,12,31,21,127,15,194,68,086,28,195,21,141,25,199,43,164,,0*59
$BDGSV,4,1,16,01,34,141,22,04,23,126,,06,84,052,,07,54,205,,0*78
$BDGSV,4,2,16,09,74,328,,10,40,213,,16,82,067,08,20,11,221,,0*74
$BDGSV,4,3,16,23,07,101,,27,46,148,20,28,47,080,29,37,53,083,30,0*7A
$BDGSV,4,4,16,39,73,111,09,40,59,189,,43,07,036,,59,36,147,,0*73
$GNRMC,040220.000,A,3957.54711,N,11621.07389,E,1.20,291.78,200126,,,A,V*01
$GNVTG,291.78,T,,M,1.20,N,2.23,K,A*26
$GNZDA,040220.000,20,01,2026,00,00*49
$GPTXT,01,01,01,ANTENNA OK*35
$GNGGA,040221.000,3957.54743,N,11621.07343,E,1,12,1.3,65.4,M,-9.9,M,,*63
$GNGLL,3957.54743,N,11621.07343,E,040221.000,A,A*4D
$GNGSA,A,3,08,09,16,26,27,194,195,,,,,,2.2,1.3,1.8,1*3C
$GNGSA,A,3,01,27,28,37,39,,,,,,,,2.2,1.3,1.8,4*3F
$GPGSV,3,1,12,04,42,222,,07,24,310,,08,57,205,17,09,42,268,17,0*69
$GPGSV,3,2,12,16,54,050,24,18,14,046,,26,25,076,28,27,79,113,27,0*69
$GPGSV,3,3,12,31,21,127,15,194,68,086,28,195,21,141,25,199,43,164,,0*59
$BDGSV,4,1,16,01,34,141,22,04,23,126,,06,84,052,,07,54,205,,0*78
$BDGSV,4,2,16,09,74,328,,10,40,213,,16,82,067,08,20,11,221,,0*74
$BDGSV,4,3,16,23,07,101,,27,46,148,20,28,47,080,29,37,53,083,30,0*7A
$BDGSV,4,4,16,39,73,111,09,40,59,189,,43,07,036,,59,36,147,,0*73
$GNRMC,040221.000,A,3957.54743,N,11621.07343,E,1.49,291.78,200126,,,A,V*0E
$GNVTG,291.78,T,,M,1.49,N,2.76,K,A*29
$GNZDA,040221.000,20,01,2026,00,00*48
$GPTXT,01,01,01,ANTENNA OK*35
$GNGGA,040222.000,3957.54792,N,11621.07305,E,1,12,1.3,65.2,M,-9.9,M,,*68
$GNGLL,3957.54792,N,11621.07305,E,040222.000,A,A*40
$GNGSA,A,3,08,09,16,26,27,194,195,,,,,,2.2,1.3,1.8,1*3C
$GNGSA,A,3,01,27,28,37,39,,,,,,,,2.2,1.3,1.8,4*3F
$GPGSV,3,1,12,04,42,222,,07,24,310,,08,57,205,17,09,42,268,17,0*69
$GPGSV,3,2,12,16,54,050,24,18,14,046,,26,25,076,28,27,79,113,27,0*69
$GPGSV,3,3,12,31,21,127,15,194,68,086,28,195,21,141,24,199,43,164,,0*58
$BDGSV,4,1,16,01,34,141,22,04,23,126,,06,84,052,,07,54,205,,0*78
$BDGSV,4,2,16,09,74,328,,10,40,213,,16,82,067,,20,11,221,07,0*7B
$BDGSV,4,3,16,23,07,101,,27,46,148,20,28,47,080,29,37,53,083,30,0*7A
$BDGSV,4,4,16,39,73,111,09,40,59,189,,43,07,036,,59,36,147,,0*73
$GNRMC,040222.000,A,3957.54792,N,11621.07305,E,1.91,291.78,200126,,,A,V*06
$GNVTG,291.78,T,,M,1.91,N,3.53,K,A*2A
$GNZDA,040222.000,20,01,2026,00,00*4B
$GPTXT,01,01,01,ANTENNA OK*35
$GNGGA,040223.000,3957.54842,N,11621.07236,E,1,12,1.3,64.9,M,-9.9,M,,*60
$GNGLL,3957.54842,N,11621.07236,E,040223.000,A,A*42
$GNGSA,A,3,08,09,16,26,27,194,195,,,,,,2.2,1.3,1.8,1*3C
$GNGSA,A,3,01,27,28,37,39,,,,,,,,2.2,1.3,1.8,4*3F
$GPGSV,3,1,12,04,42,222,,07,24,310,,08,57,205,13,09,42,268,17,0*6D
$GPGSV,3,2,12,16,54,050,24,18,14,046,,26,25,076,28,27,79,113,25,0*6B
$GPGSV,3,3,12,31,21,127,15,194,68,086,28,195,21,141,24,199,43,164,,0*58
$BDGSV,4,1,16,01,34,141,22,04,23,126,,06,84,052,,07,54,205,,0*78
$BDGSV,4,2,16,09,74,328,,10,40,213,,16,82,067,,20,11,221,07,0*7B
$BDGSV,4,3,16,23,07,101,,27,46,148,20,28,47,080,29,37,53,083,30,0*7A
$BDGSV,4,4,16,39,73,111,09,40,59,189,,43,07,036,,59,36,147,,0*73
$GNRMC,040223.000,A,3957.54842,N,11621.07236,E,2.49,301.69,200126,,,A,V*0A
$GNVTG,301.69,T,,M,2.49,N,4.61,K,A*22
$GNZDA,040223.000,20,01,2026,00,00*4A
$GPTXT,01,01,01,ANTENNA OK*35
$GNGGA,040224.000,3957.54878,N,11621.07146,E,1,12,1.3,64.4,M,-9.9,M,,*67
$GNGLL,3957.54878,N,11621.07146,E,040224.000,A,A*48
$GNGSA,A,3,08,09,16,26,27,194,195,,,,,,2.2,1.3,1.8,1*3C
$GNGSA,A,3,01,27,28,37,39,,,,,,,,2.2,1.3,1.8,4*3F
$GPGSV,3,1,12,04,42,222,,07,24,310,,08,57,205,13,09,42,268,17,0*6D
$GPGSV,3,2,12,16,54,050,24,18,14,046,,26,25,076,28,27,79,113,25,0*6B
$GPGSV,3,3,12,31,21,127,15,194,68,086,29,195,21,141,24,199,43,164,,0*59
$BDGSV,4,1,16,01,34,141,22,04,23,126,,06,84,052,,07,54,205,,0*78
$BDGSV,4,2,16,09,74,328,,10,40,213,,16,82,067,,20,11,221,07,0*7B
$BDGSV,4,3,16,23,07,101,,27,46,148,20,28,47,080,29,37,53,083,30,0*7A
$BDGSV,4,4,16,39,73,111,09,40,59,189,,43,07,036,,59,36,147,,0*73
$GNRMC,040224.000,A,3957.54878,N,11621.07146,E,1.87,301.69,200126,,,A,V*01
$GNVTG,301.69,T,,M,1.87,N,3.47,K,A*20
$GNZDA,040224.000,20,01,2026,00,00*4D
$GPTXT,01,01,01,ANTENNA OK*35
$GNGGA,040225.000,3957.54908,N,11621.07107,E,1,13,1.2,63.9,M,-9.9,M,,*6F
$GNGLL,3957.54908,N,11621.07107,E,040225.000,A,A*4A
$GNGSA,A,3,08,09,16,26,27,31,194,195,,,,,2.2,1.2,1.8,1*3F
$GNGSA,A,3,01,27,28,37,39,,,,,,,,2.2,1.2,1.8,4*3E
$GPGSV,3,1,12,04,42,222,,07,24,310,,08,57,205,13,09,42,268,17,0*6D
$GPGSV,3,2,12,16,54,050,24,18,14,046,,26,25,076,27,27,79,113,25,0*64
$GPGSV,3,3,12,31,21,127,15,194,68,086,29,195,21,141,24,199,43,164,,0*59
$BDGSV,4,1,16,01,34,141,22,04,23,126,,06,84,052,,07,54,205,,0*78
$BDGSV,4,2,16,09,74,328,,10,40,213,,16,82,067,,20,11,221,07,0*7B
$BDGSV,4,3,16,23,07,101,,27,47,148,20,28,47,080,29,37,53,083,30,0*7B
$BDGSV,4,4,16,39,73,111,09,40,59,189,,43,07,036,,59,36,147,,0*73
$GNRMC,040225.000,A,3957.54908,N,11621.07107,E,1.32,301.69,200126,,,A,V*0D
$GNVTG,301.69,T,,M,1.32,N,2.44,K,A*2C
$GNZDA,040225.000,20,01,2026,00,00*4C
$GPTXT,01,01,01,ANTENNA OK*35
$GNGGA,040226.000,3957.54936,N,11621.07109,E,1,13,1.2,63.7,M,-9.9,M,,*61
$GNGLL,3957.54936,N,11621.07109,E,040226.000,A,A*4A
$GNGSA,A,3,08,09,16,26,27,31,194,195,,,,,2.2,1.2,1.8,1*3F
$GNGSA,A,3,01,27,28,37,39,,,,,,,,2.2,1.2,1.8,4*3E
$GPGSV,3,1,12,04,42,222,,07,24,310,,08,57,205,13,09,42,268,17,0*6D
$GPGSV,3,2,12,16,54,050,24,18,14,046,,26,25,076,29,27,79,113,25,0*6A
$GPGSV,3,3,12,31,21,127,15,194,68,086,30,195,21,141,24,199,43,164,,0*51
$BDGSV,4,1,16,01,34,141,22,04,23,126,,06,84,052,,07,54,205,,0*78
$BDGSV,4,2,16,09,74,328,,10,40,213,,16,82,067,,20,11,221,07,0*7B
$BDGSV,4,3,16,23,07,101,,27,47,148,20,28,47,080,31,37,53,083,30,0*72
$BDGSV,4,4,16,39,73,111,09,40,59,189,,43,07,036,,59,36,147,,0*73
$GNRMC,040226.000,A,3957.54936,N,11621.07109,E,0.61,301.69,200126,,,A,V*0A
$GNVTG,301.69,T,,M,0.61,N,1.14,K,A*2D
$GNZDA,040226.000,20,01,2026,00,00*4F
$GPTXT,01,01,01,ANTENNA OK*35
$GNGGA,040227.000,3957.54933,N,11621.07112,E,1,13,1.2,64.0,M,-9.9,M,,*6F
$GNGLL,3957.54933,N,11621.07112,E,040227.000,A,A*44
$GNGSA,A,3,08,09,16,26,27,31,194,195,,,,,2.2,1.2,1.8,1*3F
$GNGSA,A,3,01,27,28,37,39,,,,,,,,2.2,1.2,1.8,4*3E
$GPGSV,3,1,12,04,42,222,,07,24,310,,08,57,205,13,09,42,268,17,0*6D
$GPGSV,3,2,12,16,54,050,28,18,14,046,,26,25,076,29,27,79,113,25,0*66
$GPGSV,3,3,12,31,21,127,17,194,68,086,30,195,21,141,24,199,43,164,,0*53
$BDGSV,4,1,16,01,34,141,22,04,23,126,,06,84,052,,07,54,205,,0*78
$BDGSV,4,2,16,09,74,328,,10,40,213,,16,82,067,,20,11,221,07,0*7B
$BDGSV,4,3,16,23,07,101,,27,47,148,20,28,47,080,31,37,53,083,31,0*73
$BDGSV,4,4,16,39,73,111,09,40,59,189,,43,07,036,,59,36,147,,0*73
$GNRMC,040227.000,A,3957.54933,N,11621.07112,E,0.00,301.69,200126,,,A,V*03
$GNVTG,301.69,T,,M,0.00,N,0.00,K,A*2E
$GNZDA,040227.000,20,01,2026,00,00*4E
$GPTXT,01,01,01,ANTENNA OK*35
$GNGGA,040228.000,3957.54936,N,11621.07115,E,1,13,1.2,64.3,M,-9.9,M,,*61
$GNGLL,3957.54936,N,11621.07115,E,040228.000,A,A*49
$GNGSA,A,3,08,09,16,26,27,31,194,195,,,,,2.2,1.2,1.8,1*3F
$GNGSA,A,3,01,27,28,37,39,,,,,,,,2.2,1.2,1.8,4*3E
$GPGSV,3,1,12,04,42,222,,07,24,310,,08,57,205,13,09,42,268,17,0*6D
$GPGSV,3,2,12,16,54,050,28,18,14,046,,26,25,076,31,27,79,112,25,0*6E
$GPGSV,3,3,12,31,21,127,23,194,68,086,31,195,21,141,24,199,43,164,,0*55
$BDGSV,4,1,16,01,34,141,22,04,23,126,,06,84,052,,07,54,205,,0*78
$BDGSV,4,2,16,09,74,328,,10,40,213,,16,82,067,,20,11,221,07,0*7B
$BDGSV,4,3,16,23,07,101,,27,47,148,20,28,47,080,32,37,53,083,31,0*70
$BDGSV,4,4,16,39,73,111,12,40,59,189,,43,07,036,,59,36,147,,0*79
$GNRMC,040228.000,A,3957.54936,N,11621.07115,E,0.00,301.69,200126,,,A,V*0E
$GNVTG,301.69,T,,M,0.00,N,0.00,K,A*2E
$GNZDA,040228.000,20,01,2026,00,00*41
$GPTXT,01,01,01,ANTENNA OK*35
$GNGGA,040229.000,3957.54948,N,11621.07113,E,1,13,1.2,64.6,M,-9.9,M,,*6A
$GNGLL,3957.54948,N,11621.07113,E,040229.000,A,A*47
$GNGSA,A,3,08,09,16,26,27,31,194,195,,,,,2.2,1.2,1.8,1*3F
$GNGSA,A,3,01,27,28,37,39,,,,,,,,2.2,1.2,1.8,4*3E
$GPGSV,3,1,12,04,42,222,,07,24,310,,08,57,205,13,09,42,268,17,0*6D
$GPGSV,3,2,12,16,54,050,28,18,14,046,,26,25,076,31,27,79,112,25,0*6E
$GPGSV,3,3,12,31,21,127,23,194,68,086,31,195,21,141,24,199,43,164,,0*55
$BDGSV,4,1,16,01,34,141,22,04,23,126,,06,84,052,,07,54,205,,0*78
$BDGSV,4,2,16,09,74,328,,10,40,213,,16,82,067,,20,11,221,07,0*7B
$BDGSV,4,3,16,23,07,101,,27,47,148,20,28,47,080,32,37,53,083,31,0*70
$BDGSV,4,4,16,39,73,111,12,40,59,189,,43,07,036,,59,36,147,,0*79
$GNRMC,040229.000,A,3957.54948,N,11621.07113,E,0.00,301.69,200126,,,A,V*00
$GNVTG,301.69,T,,M,0.00,N,0.00,K,A*2E
$GNZDA,040229.000,20,01,2026,00,00*40
$GPTXT,01,01,01,ANTENNA OK*35
$GNGGA,040230.000,3957.54957,N,11621.07032,E,1,13,1.2,63.1,M,-9.9,M,,*6E
$GNGLL,3957.54957,N,11621.07032,E,040230.000,A,A*43
$GNGSA,A,3,08,09,16,26,27,31,194,195,,,,,2.2,1.2,1.8,1*3F
$GNGSA,A,3,01,27,28,37,39,,,,,,,,2.2,1.2,1.8,4*3E
$GPGSV,3,1,12,04,42,222,,07,24,310,,08,57,205,16,09,42,268,17,0*68
$GPGSV,3,2,12,16,54,050,28,18,14,046,,26,25,076,31,27,79,112,24,0*6F
$GPGSV,3,3,12,31,21,127,26,194,68,086,28,195,21,141,23,199,43,164,,0*5F
$BDGSV,4,1,16,01,34,141,22,04,23,126,,06,84,052,,07,54,205,,0*78
$BDGSV,4,2,16,09,74,328,,10,40,213,,16,82,067,,20,11,221,07,0*7B
$BDGSV,4,3,16,23,07,101,,27,47,148,20,28,47,080,32,37,53,083,31,0*70
$BDGSV,4,4,16,39,73,111,12,40,59,189,,43,07,036,,59,36,147,,0*79
$GNRMC,040230.000,A,3957.54957,N,11621.07032,E,2.56,275.44,200126,,,A,V*08
$GNVTG,275.44,T,,M,2.56,N,4.74,K,A*25
$GNZDA,040230.000,20,01,2026,00,00*48
$GPTXT,01,01,01,ANTENNA OK*35
$GNGGA,040231.000,3957.54965,N,11621.07036,E,1,13,1.2,63.5,M,-9.9,M,,*6E
$GNGLL,3957.54965,N,11621.07036,E,040231.000,A,A*47
$GNGSA,A,3,08,09,16,26,27,31,194,195,,,,,2.2,1.2,1.8,1*3F
$GNGSA,A,3,01,27,28,37,39,,,,,,,,2.2,1.2,1.8,4*3E
$GPGSV,3,1,12,04,42,222,,07,24,310,,08,57,205,16,09,42,268,17,0*68
$GPGSV,3,2,12,16,54,050,28,18,14,046,,26,25,076,29,27,79,112,31,0*62
$GPGSV,3,3,12,31,21,127,29,194,68,086,28,195,21,141,23,199,43,164,,0*50
$BDGSV,4,1,16,01,34,141,22,04,23,126,,06,84,052,,07,54,205,,0*78
$BDGSV,4,2,16,09,74,328,,10,40,213,,16,82,067,,20,11,221,07,0*7B
$BDGSV,4,3,16,23,07,101,,27,47,148,20,28,47,080,31,37,53,083,31,0*73
$BDGSV,4,4,16,39,73,111,18,40,59,189,,43,07,036,,59,36,147,,0*73
$GNRMC,040231.000,A,3957.54965,N,11621.07036,E,0.00,275.44,200126,,,A,V*0D
$GNVTG,275.44,T,,M,0.00,N,0.00,K,A*23
$GNZDA,040231.000,20,01,2026,00,00*49
$GPTXT,01,01,01,ANTENNA OK*35
$GNGGA,040232.000,3957.54972,N,11621.07035,E,1,13,1.2,63.7,M,-9.9,M,,*6A
$GNGLL,3957.54972,N,11621.07035,E,040232.000,A,A*41
$GNGSA,A,3,08,09,16,26,27,31,194,195,,,,,2.2,1.2,1.8,1*3F
$GNGSA,A,3,01,27,28,37,39,,,,,,,,2.2,1.2,1.8,4*3E
$GPGSV,3,1,12,04,42,222,,07,24,310,,08,57,205,16,09,42,268,17,0*68
$GPGSV,3,2,12,16,54,050,28,18,14,046,,26,25,076,29,27,79,112,24,0*66
$GPGSV,3,3,12,31,21,127,29,194,68,086,28,195,21,141,23,199,43,164,,0*50
$BDGSV,4,1,16,01,34,141,22,04,23,126,,06,84,052,,07,54,205,,0*78
$BDGSV,4,2,16,09,74,328,,10,40,213,,16,82,067,,20,11,221,,0*7C
$BDGSV,4,3,16,23,07,101,,27,47,148,20,28,47,080,31,37,53,083,27,0*74
$BDGSV,4,4,16,39,73,112,18,40,59,189,,43,07,036,,59,36,147,,0*70
$GNRMC,040232.000,A,3957.54972,N,11621.07035,E,0.00,275.44,200126,,,A,V*0B
$GNVTG,275.44,T,,M,0.00,N,0.00,K,A*23
$GNZDA,040232.000,20,01,2026,00,00*4A
$GPTXT,01,01,01,ANTENNA OK*35
$GNGGA,040233.000,3957.54975,N,11621.07027,E,1,13,1.2,63.7,M,-9.9,M,,*6F
$GNGLL,3957.54975,N,11621.07027,E,040233.000,A,A*44
$GNGSA,A,3,08,09,16,26,27,31,194,195,,,,,2.2,1.2,1.8,1*3F
$GNGSA,A,3,01,27,28,37,39,,,,,,,,2.2,1.2,1.8,4*3E
$GPGSV,3,1,12,04,42,222,,07,24,310,,08,57,205,16,09,42,268,18,0*67
$GPGSV,3,2,12,16,54,050,28,18,14,046,,26,25,077,24,27,79,112,24,0*6A
$GPGSV,3,3,12,31,21,127,29,194,68,086,28,195,21,141,26,199,43,164,,0*55
$BDGSV,4,1,16,01,34,141,22,04,23,126,,06,84,052,,07,54,205,,0*78
$BDGSV,4,2,16,09,74,328,,10,40,213,,16,82,067,,20,11,221,,0*7C
$BDGSV,4,3,16,23,07,101,,27,47,148,21,28,47,080,31,37,53,083,27,0*75
$BDGSV,4,4,16,39,73,112,18,40,59,189,,43,07,036,,59,36,147,,0*70
$GNRMC,040233.000,A,3957.54975,N,11621.07027,E,0.00,275.44,200126,,,A,V*0E
$GNVTG,275.44,T,,M,0.00,N,0.00,K,A*23
$GNZDA,040233.000,20,01,2026,00,00*4B
$GPTXT,01,01,01,ANTENNA OK*35
$GNGGA,040234.000,3957.54984,N,11621.07026,E,1,13,1.2,63.7,M,-9.9,M,,*67
$GNGLL,3957.54984,N,11621.07026,E,040234.000,A,A*4C
$GNGSA,A,3,08,09,16,26,27,31,194,195,,,,,2.2,1.2,1.8,1*3F
$GNGSA,A,3,01,27,28,37,39,,,,,,,,2.2,1.2,1.8,4*3E
$GPGSV,3,1,12,04,42,222,,07,24,310,,08,57,205,16,09,42,268,18,0*67
$GPGSV,3,2,12,16,54,050,34,18,14,046,,26,25,077,24,27,79,112,33,0*61
$GPGSV,3,3,12,31,21,127,29,194,68,086,29,195,21,141,26,199,43,164,,0*54
$BDGSV,4,1,16,01,34,141,22,04,23,126,,06,84,052,,07,54,205,,0*78
$BDGSV,4,2,16,09,74,328,,10,40,213,,16,82,067,,20,11,221,,0*7C
$BDGSV,4,3,16,23,07,101,,27,47,148,21,28,47,080,31,37,53,083,30,0*73
$BDGSV,4,4,16,39,73,112,21,40,59,189,,43,07,036,,59,36,147,,0*7A
$GNRMC,040234.000,A,3957.54984,N,11621.07026,E,0.00,275.44,200126,,,A,V*06
$GNVTG,275.44,T,,M,0.00,N,0.00,K,A*23
$GNZDA,040234.000,20,01,2026,00,00*4C
$GPTXT,01,01,01,ANTENNA OK*35
$GNGGA,040235.000,3957.54990,N,11621.07032,E,1,14,1.2,63.9,M,-9.9,M,,*6F
$GNGLL,3957.54990,N,11621.07032,E,040235.000,A,A*4D
$GNGSA,A,3,08,09,16,26,27,31,194,195,,,,,2.2,1.2,1.8,1*3F
$GNGSA,A,3,01,16,27,28,37,39,,,,,,,2.2,1.2,1.8,4*39
$GPGSV,3,1,12,04,42,222,,07,24,310,,08,57,205,16,09,42,268,18,0*67
$GPGSV,3,2,12,16,54,050,28,18,14,046,,26,25,077,24,27,79,112,39,0*66
$GPGSV,3,3,12,31,21,127,29,194,68,086,29,195,21,141,26,199,43,164,,0*54
$BDGSV,4,1,16,01,34,141,22,04,23,126,,06,84,052,,07,54,205,,0*78
$BDGSV,4,2,16,09,74,328,,10,40,213,,16,82,067,31,20,11,221,,0*7E
$BDGSV,4,3,16,23,07,101,,27,47,148,21,28,47,080,31,37,53,083,30,0*73
$BDGSV,4,4,16,39,73,112,30,40,59,189,,43,07,036,,59,36,147,,0*7A
$GNRMC,040235.000,A,3957.54990,N,11621.07032,E,0.00,275.44,200126,,,A,V*07
$GNVTG,275.44,T,,M,0.00,N,0.00,K,A*23
$GNZDA,040235.000,20,01,2026,00,00*4D
$GPTXT,01,01,01,ANTENNA OK*35
$GNGGA,040236.000,3957.55008,N,11621.07061,E,1,15,1.2,65.0,M,-9.9,M,,*6D
$GNGLL,3957.55008,N,11621.07061,E,040236.000,A,A*41
$GNGSA,A,3,08,09,16,26,27,31,194,195,,,,,2.2,1.2,1.8,1*3F
$GNGSA,A,3,01,06,16,27,28,37,39,,,,,,2.2,1.2,1.8,4*3F
$GPGSV,3,1,12,04,42,222,,07,24,310,,08,57,205,16,09,42,268,18,0*67
$GPGSV,3,2,12,16,54,050,28,18,14,046,,26,25,077,24,27,79,112,39,0*66
$GPGSV,3,3,12,31,21,127,30,194,68,086,31,195,21,141,28,199,43,164,,0*5B
$BDGSV,4,1,16,01,34,141,21,04,23,126,,06,84,052,32,07,54,205,,0*7A
$BDGSV,4,2,16,09,74,328,,10,40,213,,16,82,067,31,20,11,221,,0*7E
$BDGSV,4,3,16,23,07,101,,27,47,148,24,28,47,080,32,37,53,083,30,0*75
$BDGSV,4,4,16,39,73,112,35,40,59,189,,43,07,036,,59,36,147,,0*7F
$GNRMC,040236.000,A,3957.55008,N,11621.07061,E,1.06,275.44,200126,,,A,V*0C
$GNVTG,275.44,T,,M,1.06,N,1.95,K,A*29
$GNZDA,040236.000,20,01,2026,00,00*4E
$GPTXT,01,01,01,ANTENNA OK*35
$GNGGA,040237.000,3957.55009,N,11621.07045,E,1,16,1.2,64.9,M,-9.9,M,,*60
$GNGLL,3957.55009,N,11621.07045,E,040237.000,A,A*47
$GNGSA,A,3,08,09,16,26,27,31,194,195,,,,,2.1,1.2,1.8,1*3C
$GNGSA,A,3,01,06,16,27,28,37,39,59,,,,,2.1,1.2,1.8,4*30
$GPGSV,3,1,12,04,42,222,,07,24,310,,08,57,205,18,09,42,268,18,0*69
$GPGSV,3,2,12,16,54,050,30,18,14,046,,26,25,077,24,27,79,112,39,0*6F
$GPGSV,3,3,12,31,21,127,30,194,68,086,33,195,21,141,32,199,43,164,,0*52
$BDGSV,4,1,16,01,34,141,21,04,23,126,,06,84,052,32,07,54,205,,0*7A
$BDGSV,4,2,16,09,74,328,,10,40,213,,16,82,067,33,20,11,220,,0*7D
$BDGSV,4,3,16,23,07,101,,27,47,148,30,28,47,080,32,37,53,083,29,0*78
$BDGSV,4,4,16,39,73,112,35,40,59,189,,43,07,036,,59,36,147,29,0*74
$GNRMC,040237.000,A,3957.55009,N,11621.07045,E,0.00,275.44,200126,,,A,V*0D
$GNVTG,275.44,T,,M,0.00,N,0.00,K,A*23
$GNZDA,040237.000,20,01,2026,00,00*4F
$GPTXT,01,01,01,ANTENNA OK*35
$GNGGA,040238.000,3957.55009,N,11621.07056,E,1,16,1.2,65.1,M,-9.9,M,,*64
$GNGLL,3957.55009,N,11621.07056,E,040238.000,A,A*4A
$GNGSA,A,3,08,09,16,26,27,31,194,195,,,,,2.1,1.2,1.8,1*3C
$GNGSA,A,3,01,06,16,27,28,37,39,59,,,,,2.1,1.2,1.8,4*30
$GPGSV,3,1,12,04,42,222,,07,24,310,,08,57,205,18,09,42,268,18,0*69
$GPGSV,3,2,12,16,54,050,30,18,14,046,,26,25,077,24,27,79,112,39,0*6F
$GPGSV,3,3,12,31,21,127,30,194,68,086,30,195,21,141,31,199,43,164,,0*52
$BDGSV,4,1,16,01,34,141,21,04,23,126,,06,84,052,32,07,54,205,,0*7A
$BDGSV,4,2,16,09,74,328,,10,40,213,,16,82,067,33,20,11,220,,0*7D
$BDGSV,4,3,16,23,07,101,,27,47,148,30,28,47,080,31,37,53,083,29,0*7B
$BDGSV,4,4,16,39,73,112,36,40,59,189,,43,07,036,,59,36,147,29,0*77
$GNRMC,040238.000,A,3957.55009,N,11621.07056,E,0.00,275.44,200126,,,A,V*00
$GNVTG,275.44,T,,M,0.00,N,0.00,K,A*23
$GNZDA,040238.000,20,01,2026,00,00*40
$GPTXT,01,01,01,ANTENNA OK*35
$GNGGA,040239.000,3957.55008,N,11621.07036,E,1,16,1.2,64.9,M,-9.9,M,,*6B
$GNGLL,3957.55008,N,11621.07036,E,040239.000,A,A*4C
$GNGSA,A,3,08,09,16,26,27,31,194,195,199,,,,2.1,1.2,1.7,1*02
$GNGSA,A,3,06,16,27,28,37,39,59,,,,,,2.1,1.2,1.7,4*3E
$GPGSV,3,1,12,04,41,222,,07,24,310,,08,57,205,18,09,42,268,18,0*6A
$GPGSV,3,2,12,16,54,050,30,18,14,046,,26,25,077,23,27,79,112,38,0*69
$GPGSV,3,3,12,31,21,127,28,194,68,086,30,195,21,141,37,199,43,164,32,0*5C
$BDGSV,4,1,16,01,34,141,,04,23,126,,06,84,052,32,07,54,205,,0*79
$BDGSV,4,2,16,09,74,328,,10,40,213,,16,82,067,32,20,11,220,,0*7C
$BDGSV,4,3,16,23,07,101,,27,47,148,27,28,47,080,27,37,53,083,29,0*7A
$BDGSV,4,4,16,39,73,112,29,40,59,189,,43,07,036,,59,36,147,29,0*79
$GNRMC,040239.000,A,3957.55008,N,11621.07036,E,0.00,275.44,200126,,,A,V*06
$GNVTG,275.44,T,,M,0.00,N,0.00,K,A*23
$GNZDA,040239.000,20,01,2026,00,00*41
$GPTXT,01,01,01,ANTENNA OK*35
$GNGGA,040240.000,3957.54992,N,11621.07087,E,1,17,1.2,65.7,M,-9.9,M,,*6A
$GNGLL,3957.54992,N,11621.07087,E,040240.000,A,A*43
$GNGSA,A,3,08,09,16,26,27,31,194,195,199,,,,2.0,1.2,1.6,1*02
$GNGSA,A,3,04,06,16,27,28,37,39,59,,,,,2.0,1.2,1.6,4*3A
$GPGSV,3,1,12,04,41,222,,07,24,310,,08,57,205,18,09,42,268,18,0*6A
$GPGSV,3,2,12,16,54,050,29,18,14,046,,26,25,077,23,27,79,112,38,0*61
$GPGSV,3,3,12,31,21,127,31,194,68,086,30,195,21,141,32,199,43,164,25,0*57
$BDGSV,4,1,16,01,34,141,,04,23,126,23,06,84,052,32,07,54,205,,0*78
$BDGSV,4,2,16,09,74,328,,10,40,213,,16,82,067,32,20,11,220,,0*7C
$BDGSV,4,3,16,23,07,101,,27,47,148,30,28,47,080,33,37,53,083,29,0*79
$BDGSV,4,4,16,39,73,112,32,40,59,189,,43,07,036,,59,36,147,29,0*73
$GNRMC,040240.000,A,3957.54992,N,11621.07087,E,2.20,100.86,200126,,,A,V*06
$GNVTG,100.86,T,,M,2.20,N,4.07,K,A*2F
$GNZDA,040240.000,20,01,2026,00,00*4F
$GPTXT,01,01,01,ANTENNA OK*35
$GNGGA,040241.000,3957.54966,N,11621.07131,E,1,17,1.2,66.5,M,-9.9,M,,*6D
$GNGLL,3957.54966,N,11621.07131,E,040241.000,A,A*45
$GNGSA,A,3,08,09,16,26,27,31,194,195,199,,,,2.0,1.2,1.6,1*02
$GNGSA,A,3,04,06,16,27,28,37,39,59,,,,,2.0,1.2,1.6,4*3A
$GPGSV,3,1,12,04,41,222,,07,24,310,,08,57,205,21,09,42,268,19,0*61
$GPGSV,3,2,12,16,54,050,29,18,13,046,,26,25,077,23,27,79,112,38,0*66
$GPGSV,3,3,12,31,21,127,31,194,68,086,31,195,21,141,34,199,43,164,25,0*50
$BDGSV,4,1,16,01,34,141,,04,23,126,23,06,84,052,31,07,54,205,,0*7B
$BDGSV,4,2,16,09,74,328,,10,40,213,,16,82,067,32,20,11,220,,0*7C
$BDGSV,4,3,16,23,07,101,,27,47,148,32,28,47,080,33,37,53,083,38,0*7B
$BDGSV,4,4,16,39,73,112,39,40,59,189,,43,07,036,,59,36,147,29,0*78
$GNRMC,040241.000,A,3957.54966,N,11621.07131,E,1.99,120.58,200126,,,A,V*00
$GNVTG,120.58,T,,M,1.99,N,3.68,K,A*21
$GNZDA,040241.000,20,01,2026,00,00*4E
$GPTXT,01,01,01,ANTENNA OK*35
$GNGGA,040242.000,3957.54964,N,11621.07094,E,1,17,1.2,66.1,M,-9.9,M,,*66
$GNGLL,3957.54964,N,11621.07094,E,040242.000,A,A*4A
$GNGSA,A,3,08,09,16,26,27,31,194,195,199,,,,2.0,1.2,1.6,1*02
$GNGSA,A,3,04,06,16,27,28,37,39,59,,,,,2.0,1.2,1.6,4*3A
$GPGSV,3,1,12,04,41,222,,07,24,310,,08,57,205,21,09,42,268,19,0*61
$GPGSV,3,2,12,16,54,050,29,18,13,046,,26,25,077,23,27,79,112,39,0*67
$GPGSV,3,3,12,31,21,127,31,194,68,086,31,195,21,141,38,199,43,164,25,0*5C
$BDGSV,4,1,16,01,34,141,,04,23,126,23,06,84,053,34,07,54,205,,0*7F
$BDGSV,4,2,16,09,74,328,,10,40,213,,16,82,067,32,20,11,220,,0*7C
$BDGSV,4,3,16,23,07,101,,27,47,148,26,28,47,080,33,37,53,083,33,0*75
$BDGSV,4,4,16,39,73,112,34,40,59,189,,43,07,036,,59,36,147,29,0*75
$GNRMC,040242.000,A,3957.54964,N,11621.07094,E,0.00,120.58,200126,,,A,V*0E
$GNVTG,120.58,T,,M,0.00,N,0.00,K,A*2D
$GNZDA,040242.000,20,01,2026,00,00*4D
$GPTXT,01,01,01,ANTENNA OK*35
$GNGGA,040243.000,3957.54956,N,11621.07074,E,1,18,1.1,65.9,M,-9.9,M,,*6F
$GNGLL,3957.54956,N,11621.07074,E,040243.000,A,A*44
$GNGSA,A,3,08,09,16,26,27,31,194,195,199,,,,2.0,1.1,1.6,1*01
$GNGSA,A,3,01,04,06,16,27,28,37,39,59,,,,2.0,1.1,1.6,4*38
$GPGSV,3,1,12,04,41,222,,07,24,310,,08,57,205,21,09,42,268,19,0*61
$GPGSV,3,2,12,16,54,050,30,18,13,046,,26,25,077,23,27,79,112,39,0*6F
$GPGSV,3,3,12,31,21,127,28,194,68,086,31,195,21,141,36,199,43,164,25,0*5A
$BDGSV,4,1,16,01,34,141,31,04,23,126,23,06,84,053,34,07,54,205,,0*7D
$BDGSV,4,2,16,09,74,328,,10,40,213,,16,82,067,36,20,11,220,,0*78
$BDGSV,4,3,16,23,07,101,,27,47,148,31,28,47,080,33,37,53,083,33,0*73
$BDGSV,4,4,16,39,73,112,32,40,59,189,,43,07,036,,59,36,147,31,0*7A
$GNRMC,040243.000,A,3957.54956,N,11621.07074,E,0.00,120.58,200126,,,A,V*00
$GNVTG,120.58,T,,M,0.00,N,0.00,K,A*2D
$GNZDA,040243.000,20,01,2026,00,00*4C
$GPTXT,01,01,01,ANTENNA OK*35
$GNGGA,040244.000,3957.54949,N,11621.07049,E,1,17,1.2,65.7,M,-9.9,M,,*6A
$GNGLL,3957.54949,N,11621.07049,E,040244.000,A,A*43
$GNGSA,A,3,09,16,26,27,31,194,195,199,,,,,2.0,1.2,1.7,1*0B
$GNGSA,A,3,01,04,06,16,27,28,37,39,59,,,,2.0,1.2,1.7,4*3A
$GPGSV,3,1,12,04,41,222,,07,24,310,,08,57,205,,09,42,268,19,0*62
$GPGSV,3,2,12,16,54,050,30,18,13,046,,26,25,077,23,27,79,112,39,0*6F
$GPGSV,3,3,12,31,21,127,28,194,68,086,29,195,21,141,36,199,43,164,25,0*53
$BDGSV,4,1,16,01,34,141,31,04,23,126,23,06,84,053,33,07,54,205,,0*7A
$BDGSV,4,2,16,09,74,328,,10,40,213,,16,82,067,36,20,11,220,,0*78
$BDGSV,4,3,16,23,07,101,,27,47,148,31,28,47,080,33,37,53,083,33,0*73
$BDGSV,4,4,16,39,73,112,34,40,59,189,,43,07,036,,59,36,147,31,0*7C
$GNRMC,040244.000,A,3957.54949,N,11621.07049,E,0.00,120.58,200126,,,A,V*07
$GNVTG,120.58,T,,M,0.00,N,0.00,K,A*2D
$GNZDA,040244.000,20,01,2026,00,00*4B
$GPTXT,01,01,01,ANTENNA OK*35
$GNGGA,040245.000,3957.54935,N,11621.07008,E,1,18,1.2,65.4,M,-9.9,M,,*69
$GNGLL,3957.54935,N,11621.07008,E,040245.000,A,A*4C
$GNGSA,A,3,09,16,26,27,31,194,195,199,,,,,2.0,1.2,1.7,1*0B
$GNGSA,A,3,01,04,06,16,27,28,37,39,40,59,,,2.0,1.2,1.7,4*3E
$GPGSV,3,1,12,04,41,222,,07,24,310,,08,57,205,,09,42,268,19,0*62
$GPGSV,3,2,12,16,54,050,30,18,13,046,,26,25,077,23,27,79,112,39,0*6F
$GPGSV,3,3,12,31,21,127,28,194,68,086,25,195,21,141,36,199,43,164,25,0*5F
$BDGSV,4,1,16,01,34,141,31,04,23,126,23,06,84,053,33,07,54,205,,0*7A
$BDGSV,4,2,16,09,74,328,,10,40,213,,16,82,067,36,20,11,220,,0*78
$BDGSV,4,3,16,23,07,101,,27,47,148,32,28,47,080,33,37,53,083,33,0*70
$BDGSV,4,4,16,39,73,112,34,40,59,189,20,43,07,036,,59,36,147,31,0*7E
$GNRMC,040245.000,A,3957.54935,N,11621.07008,E,0.00,120.58,200126,,,A,V*08
$GNVTG,120.58,T,,M,0.00,N,0.00,K,A*2D
$GNZDA,040245.000,20,01,2026,00,00*4A
$GPTXT,01,01,01,ANTENNA OK*35
$GNGGA,040246.000,3957.54922,N,11621.06967,E,1,19,1.1,65.3,M,-9.9,M,,*68
$GNGLL,3957.54922,N,11621.06967,E,040246.000,A,A*48
$GNGSA,A,3,08,09,16,26,27,31,194,195,199,,,,2.0,1.1,1.6,1*01
$GNGSA,A,3,01,04,06,16,27,28,37,39,40,59,,,2.0,1.1,1.6,4*3C
$GPGSV,3,1,12,04,41,222,,07,24,310,,08,57,205,21,09,42,268,19,0*61
$GPGSV,3,2,12,16,54,050,30,18,13,046,,26,25,077,23,27,79,112,37,0*61
$GPGSV,3,3,12,31,21,127,28,194,68,086,36,195,21,141,36,199,43,164,25,0*5D
$BDGSV,4,1,16,01,34,141,31,04,23,126,23,06,84,053,33,07,54,205,,0*7A
$BDGSV,4,2,16,09,74,328,,10,40,213,,16,82,067,35,20,11,220,,0*7B
$BDGSV,4,3,16,23,07,101,,27,47,148,32,28,47,080,33,37,53,083,33,0*70
$BDGSV,4,4,16,39,73,112,34,40,59,189,23,43,07,036,,59,36,147,31,0*7D
$GNRMC,040246.000,A,3957.54922,N,11621.06967,E,0.00,120.58,200126,,,A,V*0C
$GNVTG,120.58,T,,M,0.00,N,0.00,K,A*2D
$GNZDA,040246.000,20,01,2026,00,00*49
$GPTXT,01,01,01,ANTENNA OK*35
$GNGGA,040247.000,3957.54902,N,11621.06960,E,1,19,1.1,65.4,M,-9.9,M,,*6B
$GNGLL,3957.54902,N,11621.06960,E,040247.000,A,A*4C
$GNGSA,A,3,08,09,16,26,27,31,194,195,199,,,,2.0,1.1,1.6,1*01
$GNGSA,A,3,01,04,06,16,27,28,37,39,40,59,,,2.0,1.1,1.6,4*3C
$GPGSV,3,1,12,04,41,222,,07,24,310,,08,57,205,21,09,42,268,19,0*61
$GPGSV,3,2,12,16,54,050,30,18,13,046,,26,25,077,23,27,79,112,38,0*6E
$GPGSV,3,3,12,31,21,127,28,194,68,086,34,195,21,141,36,199,43,164,25,0*5F
$BDGSV,4,1,16,01,34,141,31,04,23,126,20,06,84,053,33,07,54,205,,0*79
$BDGSV,4,2,16,09,74,328,,10,40,213,,16,82,067,35,20,11,220,,0*7B
$BDGSV,4,3,16,23,07,101,,27,47,148,32,28,47,080,33,37,53,083,33,0*70
$BDGSV,4,4,16,39,73,112,35,40,59,189,29,43,07,036,,59,36,147,31,0*76
$GNRMC,040247.000,A,3957.54902,N,11621.06960,E,0.00,120.58,200126,,,A,V*08
$GNVTG,120.58,T,,M,0.00,N,0.00,K,A*2D
$GNZDA,040247.000,20,01,2026,00,00*48
$GPTXT,01,01,01,ANTENNA OK*35
$GNGGA,040248.000,3957.54865,N,11621.06875,E,1,20,1.1,66.2,M,-9.9,M,,*6E
$GNGLL,3957.54865,N,11621.06875,E,040248.000,A,A*46
$GNGSA,A,3,08,09,16,26,27,31,194,195,199,,,,1.9,1.1,1.6,1*0B
$GNGSA,A,3,01,04,06,10,16,27,28,37,39,40,59,,1.9,1.1,1.6,4*37
$GPGSV,3,1,12,04,41,222,,07,24,310,,08,57,205,21,09,42,268,19,0*61
$GPGSV,3,2,12,16,54,050,35,18,13,046,,26,25,077,23,27,79,112,38,0*6B
$GPGSV,3,3,12,31,21,127,27,194,68,086,36,195,21,141,36,199,43,164,26,0*51
$BDGSV,4,1,16,01,34,141,31,04,23,126,20,06,84,053,33,07,54,205,,0*79
$BDGSV,4,2,16,09,74,328,,10,40,213,11,16,82,067,33,20,11,220,,0*7D
$BDGSV,4,3,16,23,07,101,,27,47,148,33,28,47,080,33,37,53,083,33,0*71
$BDGSV,4,4,16,39,73,112,37,40,59,189,32,43,07,036,,59,36,147,31,0*7E
$GNRMC,040248.000,A,3957.54865,N,11621.06875,E,2.80,253.45,200126,,,A,V*03
$GNVTG,253.45,T,,M,2.80,N,5.19,K,A*21
$GNZDA,040248.000,20,01,2026,00,00*47
$GPTXT,01,01,01,ANTENNA OK*35
$GNGGA,040249.000,3957.54840,N,11621.06827,E,1,21,1.0,66.4,M,-9.9,M,,*69
$GNGLL,3957.54840,N,11621.06827,E,040249.000,A,A*47
$GNGSA,A,3,08,09,16,26,27,31,194,195,199,,,,1.8,1.0,1.5,1*08
$GNGSA,A,3,01,04,06,09,10,16,27,28,37,39,40,59,1.8,1.0,1.5,4*3D
$GPGSV,3,1,12,04,41,222,,07,24,310,,08,57,205,21,09,42,268,19,0*61
$GPGSV,3,2,12,16,54,050,35,18,13,046,,26,25,077,24,27,79,112,39,0*6D
$GPGSV,3,3,12,31,21,127,27,194,68,086,36,195,21,141,35,199,43,164,28,0*5C
$BDGSV,4,1,16,01,34,141,31,04,23,126,20,06,84,053,33,07,54,205,,0*79
$BDGSV,4,2,16,09,74,328,28,10,40,213,11,16,82,067,33,20,11,220,,0*77
$BDGSV,4,3,16,23,07,101,,27,47,148,34,28,47,080,33,37,53,083,33,0*76
$BDGSV,4,4,16,39,73,112,37,40,59,189,35,43,07,036,,59,36,147,31,0*79
$GNRMC,040249.000,A,3957.54840,N,11621.06827,E,1.01,253.45,200126,,,A,V*08
$GNVTG,253.45,T,,M,1.01,N,1.87,K,A*28
$GNZDA,040249.000,20,01,2026,00,00*46
$GPTXT,01,01,01,ANTENNA OK*35
$GNGGA,040250.000,3957.54789,N,11621.06852,E,1,22,0.9,67.9,M,-9.9,M,,*6E
$GNGLL,3957.54789,N,11621.06852,E,040250.000,A,A*47
$GNGSA,A,3,08,09,16,26,27,31,194,195,199,,,,1.5,0.9,1.2,1*0A
$GNGSA,A,3,01,04,06,09,10,16,20,27,28,37,39,40,1.5,0.9,1.2,4*31
$GPGSV,3,1,12,04,41,222,,07,24,310,,08,57,205,22,09,42,268,19,0*62
$GPGSV,3,2,12,16,54,050,33,18,13,046,,26,25,077,24,27,79,111,39,0*68
$GPGSV,3,3,12,31,21,127,27,194,68,086,34,195,21,141,31,199,43,164,28,0*5A
$BDGSV,4,1,16,01,34,141,31,04,23,126,20,06,84,053,30,07,54,205,,0*7A
$BDGSV,4,2,16,09,74,328,28,10,40,213,11,16,82,067,33,20,11,220,16,0*70
$BDGSV,4,3,16,23,07,101,,27,47,148,34,28,47,080,33,37,53,083,33,0*76
$BDGSV,4,4,16,39,73,112,37,40,59,189,33,43,07,036,,59,36,147,31,0*7F
$GNRMC,040250.000,A,3957.54789,N,11621.06852,E,1.78,253.45,200126,,,A,V*06
$GNVTG,253.45,T,,M,1.78,N,3.29,K,A*20
$GNZDA,040250.000,20,01,2026,00,00*4E
$GPTXT,01,01,01,ANTENNA OK*35
$GNGGA,040251.000,3957.54778,N,11621.06808,E,1,22,0.9,66.2,M,-9.9,M,,*64
$GNGLL,3957.54778,N,11621.06808,E,040251.000,A,A*47
$GNGSA,A,3,08,09,16,26,27,31,194,195,199,,,,1.5,0.9,1.2,1*0A
$GNGSA,A,3,01,04,06,09,10,16,20,27,28,37,39,40,1.5,0.9,1.2,4*31
$GPGSV,3,1,12,04,41,222,,07,24,310,,08,57,205,27,09,42,268,19,0*67
$GPGSV,3,2,12,16,54,050,33,18,13,046,,26,25,077,24,27,79,111,38,0*69
$GPGSV,3,3,12,31,21,127,27,194,68,086,36,195,21,141,31,199,43,164,28,0*58
$BDGSV,4,1,16,01,34,141,31,04,23,126,20,06,84,053,32,07,54,205,,0*78
$BDGSV,4,2,16,09,74,328,29,10,40,213,11,16,82,067,33,20,11,220,16,0*71
$BDGSV,4,3,16,23,07,101,,27,47,148,35,28,47,080,33,37,53,083,33,0*77
$BDGSV,4,4,16,39,73,112,37,40,59,189,33,43,07,036,,59,36,147,31,0*7F
$GNRMC,040251.000,A,3957.54778,N,11621.06808,E,1.11,253.45,200126,,,A,V*09
$GNVTG,253.45,T,,M,1.11,N,2.05,K,A*20
$GNZDA,040251.000,20,01,2026,00,00*4F
$GPTXT,01,01,01,ANTENNA OK*35
$GNGGA,040252.000,3957.54772,N,11621.06791,E,1,21,1.0,66.3,M,-9.9,M,,*68
$GNGLL,3957.54772,N,11621.06791,E,040252.000,A,A*41
$GNGSA,A,3,08,09,16,26,27,31,194,195,199,,,,1.8,1.0,1.5,1*08
$GNGSA,A,3,01,04,06,09,10,16,27,28,37,39,40,59,1.8,1.0,1.5,4*3D
$GPGSV,3,1,12,04,41,222,,07,24,310,32,08,57,205,27,09,42,268,19,0*66
$GPGSV,3,2,12,16,54,050,33,18,13,046,,26,25,077,26,27,79,111,38,0*6B
$GPGSV,3,3,12,31,21,127,27,194,68,086,34,195,21,141,31,199,43,164,28,0*5A
$BDGSV,4,1,16,01,34,141,29,04,23,126,20,06,84,053,32,07,54,205,,0*71
$BDGSV,4,2,16,09,74,328,29,10,40,213,11,16,82,067,34,20,11,220,,0*71
$BDGSV,4,3,16,23,07,101,,27,47,148,35,28,47,080,33,37,53,083,33,0*77
$BDGSV,4,4,16,39,73,112,38,40,59,189,33,43,07,036,,59,36,147,31,0*70
$GNRMC,040252.000,A,3957.54772,N,11621.06791,E,0.00,253.45,200126,,,A,V*0E
$GNVTG,253.45,T,,M,0.00,N,0.00,K,A*26
$GNZDA,040252.000,20,01,2026,00,00*4C
$GPTXT,01,01,01,ANTENNA OK*35
$GNGGA,040253.000,3957.54768,N,11621.06774,E,1,21,1.0,66.3,M,-9.9,M,,*69
$GNGLL,3957.54768,N,11621.06774,E,040253.000,A,A*40
$GNGSA,A,3,08,09,16,26,27,31,194,195,199,,,,1.8,1.0,1.5,1*08
$GNGSA,A,3,01,04,06,09,10,16,27,28,37,39,40,59,1.8,1.0,1.5,4*3D
$GPGSV,3,1,12,04,41,222,,07,24,310,32,08,57,205,27,09,42,268,31,0*6C
$GPGSV,3,2,12,16,54,050,33,18,13,046,,26,25,077,26,27,79,111,38,0*6B
$GPGSV,3,3,12,31,21,127,27,194,68,086,34,195,21,141,32,199,43,164,28,0*59
$BDGSV,4,1,16,01,34,141,29,04,23,126,20,06,84,053,33,07,54,205,,0*70
$BDGSV,4,2,16,09,74,328,29,10,40,213,11,16,82,067,36,20,11,220,,0*73
$BDGSV,4,3,16,23,07,101,,27,47,148,36,28,47,080,33,37,53,083,33,0*74
$BDGSV,4,4,16,39,73,112,35,40,59,189,34,43,07,036,,59,36,147,31,0*7A
$GNRMC,040253.000,A,3957.54768,N,11621.06774,E,0.00,253.45,200126,,,A,V*0F
$GNVTG,253.45,T,,M,0.00,N,0.00,K,A*26
$GNZDA,040253.000,20,01,2026,00,00*4D
$GPTXT,01,01,01,ANTENNA OK*35
$GNGGA,040254.000,3957.54754,N,11621.06752,E,1,22,1.0,66.3,M,-9.9,M,,*66
$GNGLL,3957.54754,N,11621.06752,E,040254.000,A,A*4C
$GNGSA,A,3,08,09,16,26,27,31,194,195,199,,,,1.8,1.0,1.5,1*08
$GNGSA,A,3,01,04,06,07,09,10,16,27,28,37,39,40,1.8,1.0,1.5,4*36
$GPGSV,3,1,12,04,41,222,,07,24,310,30,08,57,205,28,09,42,268,33,0*63
$GPGSV,3,2,12,16,54,050,32,18,13,046,,26,25,077,26,27,79,111,37,0*65
$GPGSV,3,3,12,31,21,127,27,194,68,086,35,195,21,141,32,199,43,164,28,0*58
$BDGSV,4,1,16,01,34,141,29,04,23,126,20,06,84,053,33,07,54,205,22,0*70
$BDGSV,4,2,16,09,74,328,29,10,40,213,11,16,82,067,36,20,11,220,,0*73
$BDGSV,4,3,16,23,07,101,,27,47,148,29,28,47,080,33,37,53,083,33,0*7A
$BDGSV,4,4,16,39,73,112,35,40,59,189,34,43,07,036,,59,36,147,31,0*7A
$GNRMC,040254.000,A,3957.54754,N,11621.06752,E,0.00,253.45,200126,,,A,V*03
$GNVTG,253.45,T,,M,0.00,N,0.00,K,A*26
$GNZDA,040254.000,20,01,2026,00,00*4A
$GPTXT,01,01,01,ANTENNA OK*35
$GNGGA,040255.000,3957.54694,N,11621.06745,E,1,22,1.0,66.5,M,-9.9,M,,*6A
$GNGLL,3957.54694,N,11621.06745,E,040255.000,A,A*46
$GNGSA,A,3,08,09,16,26,27,31,194,195,199,,,,1.8,1.0,1.5,1*08
$GNGSA,A,3,01,04,06,07,09,10,16,27,28,37,39,40,1.8,1.0,1.5,4*36
$GPGSV,3,1,12,04,41,222,,07,24,310,30,08,57,205,28,09,42,268,33,0*63
$GPGSV,3,2,12,16,54,050,32,18,13,046,,26,25,077,26,27,79,111,37,0*65
$GPGSV,3,3,12,31,21,127,30,194,68,086,37,195,21,141,30,199,43,164,28,0*5E
$BDGSV,4,1,16,01,34,141,29,04,23,126,20,06,84,053,31,07,54,205,24,0*74
$BDGSV,4,2,16,09,74,328,27,10,40,213,11,16,82,067,33,20,11,220,,0*78
$BDGSV,4,3,16,23,07,101,,27,47,148,32,28,47,080,33,37,53,083,40,0*74
$BDGSV,4,4,16,39,73,112,35,40,59,189,31,43,07,036,,59,36,147,31,0*7F
$GNRMC,040255.000,A,3957.54694,N,11621.06745,E,2.28,145.87,200126,,,A,V*0B
$GNVTG,145.87,T,,M,2.28,N,4.22,K,A*20
$GNZDA,040255.000,20,01,2026,00,00*4B
$GPTXT,01,01,01,ANTENNA OK*35
$GNGGA,040256.000,3957.54644,N,11621.06721,E,1,22,1.0,66.2,M,-9.9,M,,*61
$GNGLL,3957.54644,N,11621.06721,E,040256.000,A,A*4A
$GNGSA,A,3,08,09,16,26,27,31,194,195,199,,,,1.8,1.0,1.5,1*08
$GNGSA,A,3,01,04,06,07,09,10,16,27,28,37,39,40,1.8,1.0,1.5,4*36
$GPGSV,3,1,12,04,41,222,,07,24,310,23,08,57,205,30,09,41,268,34,0*6C
$GPGSV,3,2,12,16,54,050,32,18,13,046,,26,25,077,26,27,79,111,37,0*65
$GPGSV,3,3,12,31,21,127,30,194,68,086,37,195,21,141,30,199,43,164,27,0*51
$BDGSV,4,1,16,01,34,141,29,04,23,126,20,06,84,053,37,07,54,205,28,0*7E
$BDGSV,4,2,16,09,74,328,27,10,40,213,11,16,82,067,35,20,11,220,,0*7E
$BDGSV,4,3,16,23,07,101,,27,47,148,32,28,47,080,34,37,53,083,37,0*73
$BDGSV,4,4,16,39,73,112,35,40,59,189,31,43,07,036,,59,36,147,31,0*7F
$GNRMC,040256.000,A,3957.54644,N,11621.06721,E,1.61,145.87,200126,,,A,V*09
$GNVTG,145.87,T,,M,1.61,N,2.98,K,A*29
$GNZDA,040256.000,20,01,2026,00,00*48
$GPTXT,01,01,01,ANTENNA OK*35
$GNGGA,040257.000,3957.54594,N,11621.06687,E,1,22,1.0,66.4,M,-9.9,M,,*65
$GNGLL,3957.54594,N,11621.06687,E,040257.000,A,A*48
$GNGSA,A,3,08,09,16,26,27,31,194,195,199,,,,1.8,1.0,1.5,1*08
$GNGSA,A,3,01,04,06,07,09,10,16,27,28,37,39,40,1.8,1.0,1.5,4*36
$GPGSV,3,1,12,04,41,222,,07,24,310,23,08,57,205,34,09,41,268,34,0*68
$GPGSV,3,2,12,16,54,050,32,18,13,046,,26,25,077,25,27,79,111,36,0*67
$GPGSV,3,3,12,31,21,127,30,194,68,086,36,195,21,141,30,199,43,164,27,0*50
$BDGSV,4,1,16,01,34,141,29,04,23,126,20,06,84,053,33,07,54,205,28,0*7A
$BDGSV,4,2,16,09,74,328,28,10,40,213,09,16,82,068,35,20,11,220,,0*77
$BDGSV,4,3,16,23,07,101,,27,47,148,32,28,47,080,34,37,53,083,32,0*76
$BDGSV,4,4,16,39,73,112,34,40,59,189,32,43,07,036,,59,36,147,31,0*7D
$GNRMC,040257.000,A,3957.54594,N,11621.06687,E,1.26,145.87,200126,,,A,V*08
$GNVTG,145.87,T,,M,1.26,N,2.34,K,A*2C
$GNZDA,040257.000,20,01,2026,00,00*49
$GPTXT,01,01,01,ANTENNA OK*35
$GNGGA,040258.000,3957.54536,N,11621.06676,E,1,23,1.0,66.7,M,-9.9,M,,*6E
$GNGLL,3957.54536,N,11621.06676,E,040258.000,A,A*41
$GNGSA,A,3,04,08,09,16,26,27,31,194,195,199,,,1.8,1.0,1.5,1*0C
$GNGSA,A,3,01,04,06,07,09,10,16,27,28,37,39,40,1.8,1.0,1.5,4*36
$GPGSV,3,1,12,04,41,222,20,07,24,310,23,08,57,205,36,09,41,268,34,0*68
$GPGSV,3,2,12,16,54,050,32,18,13,046,,26,25,077,25,27,79,111,36,0*67
$GPGSV,3,3,12,31,21,127,30,194,68,086,36,195,21,141,30,199,43,164,27,0*50
$BDGSV,4,1,16,01,34,141,29,04,23,126,20,06,84,053,29,07,54,205,29,0*70
$BDGSV,4,2,16,09,74,328,31,10,40,213,09,16,82,068,33,20,11,220,,0*79
$BDGSV,4,3,16,23,07,101,,27,47,148,32,28,47,080,32,37,53,083,32,0*70
$BDGSV,4,4,16,39,73,112,34,40,59,189,32,43,07,036,,59,36,147,31,0*7D
$GNRMC,040258.000,A,3957.54536,N,11621.06676,E,2.29,182.92,200126,,,A,V*02
$GNVTG,182.92,T,,M,2.29,N,4.23,K,A*2F
$GNZDA,040258.000,20,01,2026,00,00*46
$GPTXT,01,01,01,ANTENNA OK*35
$GNGGA,040259.000,3957.54473,N,11621.06653,E,1,22,1.0,66.9,M,-9.9,M,,*67
$GNGLL,3957.54473,N,11621.06653,E,040259.000,A,A*47
$GNGSA,A,3,04,08,09,16,26,27,31,194,195,199,,,1.9,1.0,1.6,1*0E
$GNGSA,A,3,01,04,06,07,09,16,27,28,37,39,40,59,1.9,1.0,1.6,4*39
$GPGSV,3,1,12,04,41,222,20,07,24,310,23,08,57,206,36,09,41,268,33,0*6C
$GPGSV,3,2,12,16,54,050,34,18,13,046,,26,25,077,25,27,79,111,36,0*61
$GPGSV,3,3,12,31,21,127,31,194,68,086,34,195,21,141,30,199,43,164,25,0*51
$BDGSV,4,1,16,01,34,141,29,04,23,126,16,06,84,053,29,07,54,205,29,0*75
$BDGSV,4,2,16,09,74,328,31,10,40,213,,16,82,068,29,20,11,220,,0*7B
$BDGSV,4,3,16,23,07,101,,27,47,148,32,28,47,080,32,37,53,083,32,0*70
